
[
  {
    "country_en": "United Arab Emirates",
    "region_en": "Ra's al Khaymah",
    "city_en": "Ras al-Khaimah",
    "country": "Объединенные Арабские Эмираты",
    "region": "Ras al Khaimah",
    "city": "Рас-эль-Хайма",
    "lat": 25.8006926,
    "lng": 55.9761994
  },
  {
    "country_en": "United Arab Emirates",
    "region_en": "Dubai",
    "city_en": "Dubai",
    "country": "Объединенные Арабские Эмираты",
    "region": "Дубай",
    "city": "Дубай",
    "lat": 25.2048493,
    "lng": 55.2707828
  },
  {
    "country_en": "United Arab Emirates",
    "region_en": "Ash Shariqah",
    "city_en": "Sharjah",
    "country": "Объединенные Арабские Эмираты",
    "region": "Шарджа",
    "city": "Шарджа",
    "lat": 25.3223269,
    "lng": 55.5136433
  },
  {
    "country_en": "United Arab Emirates",
    "region_en": "Al Fujayrah",
    "city_en": "Al Fujayrah",
    "country": "Объединенные Арабские Эмираты",
    "region": "Фьюджейра",
    "city": "Фьюджейра",
    "lat": 25.4110762,
    "lng": 56.2482277
  },
  {
    "country_en": "United Arab Emirates",
    "region_en": "Abu Dhabi",
    "city_en": "Al Ain",
    "country": "Объединенные Арабские Эмираты",
    "region": "Абу-Даби",
    "city": "Эль-Айн",
    "lat": 24.1301619,
    "lng": 55.8023118
  },
  {
    "country_en": "United Arab Emirates",
    "region_en": "Ajman",
    "city_en": "Ajman",
    "country": "Объединенные Арабские Эмираты",
    "region": "Аджман",
    "city": "Аджман",
    "lat": 25.4052165,
    "lng": 55.5136433
  },
  {
    "country_en": "United Arab Emirates",
    "region_en": "Abu Dhabi",
    "city_en": "Abu Dhabi",
    "country": "Объединенные Арабские Эмираты",
    "region": "Абу-Даби",
    "city": "Абу-Даби",
    "lat": 24.2991738,
    "lng": 54.6972774
  },
  {
    "country_en": "Afghanistan",
    "region_en": "Takhar",
    "city_en": "Taloqan",
    "country": "Афганистан",
    "region": "Тахар",
    "city": "Талукан",
    "lat": 36.7338782,
    "lng": 69.5394189
  },
  {
    "country_en": "Afghanistan",
    "region_en": "Jowzjan",
    "city_en": "Shibirghan",
    "country": "Афганистан",
    "region": "Джаузджан",
    "city": "Шибарган",
    "lat": 36.6817149,
    "lng": 65.7490624
  },
  {
    "country_en": "Afghanistan",
    "region_en": "Sar-e Pol",
    "city_en": "Sar-e Pul",
    "country": "Афганистан",
    "region": "Сари-Пуль",
    "city": "Сари-Пуль",
    "lat": 35.6707473,
    "lng": 66.0463534
  },
  {
    "country_en": "Afghanistan",
    "region_en": "Wilayat-e Baghlan",
    "city_en": "Pul-e Khumri",
    "country": "Афганистан",
    "region": "Баглан",
    "city": "Баглан",
    "lat": 35.8042947,
    "lng": 69.2877535
  },
  {
    "country_en": "Afghanistan",
    "region_en": "Faryab",
    "city_en": "Maymana",
    "country": "Афганистан",
    "region": "Фарьяб",
    "city": "Меймене",
    "lat": 35.91784,
    "lng": 64.7755147
  },
  {
    "country_en": "Afghanistan",
    "region_en": "Balkh",
    "city_en": "Mazar-e Sharif",
    "country": "Афганистан",
    "region": "Балх",
    "city": "Мазари-Шариф",
    "lat": 36.6926167,
    "lng": 67.1179511
  },
  {
    "country_en": "Afghanistan",
    "region_en": "Kunduz",
    "city_en": "Kunduz",
    "country": "Афганистан",
    "region": "Кундуз",
    "city": "Кундуз",
    "lat": 36.7285907,
    "lng": 68.8680663
  },
  {
    "country_en": "Afghanistan",
    "region_en": "Khowst",
    "city_en": "Khost",
    "country": "Афганистан",
    "region": "Хост",
    "city": "Хост",
    "lat": 33.3338472,
    "lng": 69.9371673
  },
  {
    "country_en": "Afghanistan",
    "region_en": "Balkh",
    "city_en": "Khulm",
    "country": "Афганистан",
    "region": "Балх",
    "city": "Кем",
    "lat": 36.7027082,
    "lng": 67.7079491
  },
  {
    "country_en": "Afghanistan",
    "region_en": "Kunduz",
    "city_en": "Khanabad",
    "country": "Афганистан",
    "region": "Kunduz",
    "city": "Khanabad",
    "lat": 36.681449,
    "lng": 69.1149051
  },
  {
    "country_en": "Afghanistan",
    "region_en": "Kandahar",
    "city_en": "Kandahar",
    "country": "Афганистан",
    "region": "Кандагар",
    "city": "Кандагар",
    "lat": 31.628871,
    "lng": 65.7371749
  },
  {
    "country_en": "Afghanistan",
    "region_en": "Kabul",
    "city_en": "Kabul",
    "country": "Афганистан",
    "region": "Кабул",
    "city": "Кабул",
    "lat": 34.5553494,
    "lng": 69.207486
  },
  {
    "country_en": "Afghanistan",
    "region_en": "Nangarhar",
    "city_en": "Jalalabad",
    "country": "Афганистан",
    "region": "Нангархар",
    "city": "Джелалабад",
    "lat": 34.4198488,
    "lng": 70.4729434
  },
  {
    "country_en": "Afghanistan",
    "region_en": "Herat",
    "city_en": "Herat",
    "country": "Афганистан",
    "region": "Герат",
    "city": "Герат",
    "lat": 34.352865,
    "lng": 62.2040287
  },
  {
    "country_en": "Afghanistan",
    "region_en": "Ghazni",
    "city_en": "Ghazni",
    "country": "Афганистан",
    "region": "Газни",
    "city": "Газни",
    "lat": 33.5450587,
    "lng": 68.4173972
  },
  {
    "country_en": "Afghanistan",
    "region_en": "Paktia",
    "city_en": "Gardez",
    "country": "Афганистан",
    "region": "Пактия",
    "city": "Гардез",
    "lat": 33.6042793,
    "lng": 69.2281531
  },
  {
    "country_en": "Afghanistan",
    "region_en": "Parvan",
    "city_en": "Charikar",
    "country": "Афганистан",
    "region": "Парван",
    "city": "Чарикар",
    "lat": 35.0107648,
    "lng": 69.1625896
  },
  {
    "country_en": "Afghanistan",
    "region_en": "Bamian",
    "city_en": "Bamyan",
    "country": "Афганистан",
    "region": "Bamiyan",
    "city": "Bamyan",
    "lat": 34.8100067,
    "lng": 67.8212104
  },
  {
    "country_en": "Afghanistan",
    "region_en": "Balkh",
    "city_en": "Balkh",
    "country": "Афганистан",
    "region": "Балх",
    "city": "Балх",
    "lat": 36.7550603,
    "lng": 66.8975372
  },
  {
    "country_en": "Afghanistan",
    "region_en": "Wilayat-e Baghlan",
    "city_en": "Baghlan",
    "country": "Афганистан",
    "region": "Baghlan",
    "city": "Baghlan",
    "lat": 36.1789026,
    "lng": 68.7453064
  },
  {
    "country_en": "Afghanistan",
    "region_en": "Panjshir",
    "city_en": "Bazarak",
    "country": "Афганистан",
    "region": "Badakhshan",
    "city": "Baharak",
    "lat": 37.0038848,
    "lng": 70.8714528
  },
  {
    "country_en": "Afghanistan",
    "region_en": "Bamian",
    "city_en": "Cool urhajo",
    "country": "Афганистан",
    "region": "Bamian",
    "city": "Cool urhajo",
    "lat": 34.26545,
    "lng": 67.34516
  },
  {
    "country_en": "Albania",
    "region_en": "Korce",
    "city_en": "Korce",
    "country": "Албания",
    "region": "Корча",
    "city": "Корча",
    "lat": 40.6140785,
    "lng": 20.7778071
  },
  {
    "country_en": "Albania",
    "region_en": "Elbasan",
    "city_en": "Elbasan",
    "country": "Албания",
    "region": "Elbasan",
    "city": "Эльбасан",
    "lat": 41.11023,
    "lng": 20.0866554
  },
  {
    "country_en": "Albania",
    "region_en": "Vlore",
    "city_en": "Vlore",
    "country": "Албания",
    "region": "Vlore",
    "city": "Влёра",
    "lat": 40.4660668,
    "lng": 19.491356
  },
  {
    "country_en": "Albania",
    "region_en": "Tirane",
    "city_en": "Tirana",
    "country": "Албания",
    "region": "Tirana",
    "city": "Тирана",
    "lat": 41.3275459,
    "lng": 19.8186982
  },
  {
    "country_en": "Albania",
    "region_en": "Shkoder",
    "city_en": "Shkoder",
    "country": "Албания",
    "region": "Шкодер",
    "city": "Шкодра",
    "lat": 42.0692985,
    "lng": 19.5032559
  },
  {
    "country_en": "Albania",
    "region_en": "Fier",
    "city_en": "Fier",
    "country": "Албания",
    "region": "Fier",
    "city": "Fier",
    "lat": 40.9191392,
    "lng": 19.6639309
  },
  {
    "country_en": "Albania",
    "region_en": "Durres",
    "city_en": "Durres",
    "country": "Албания",
    "region": "Durres",
    "city": "Дуррес",
    "lat": 41.3245904,
    "lng": 19.4564686
  },
  {
    "country_en": "Armenia",
    "region_en": "Yerevan",
    "city_en": "Yerevan",
    "country": "Армения",
    "region": "Ереван",
    "city": "Ереван",
    "lat": 40.1791857,
    "lng": 44.4991029
  },
  {
    "country_en": "Armenia",
    "region_en": "Lori Province",
    "city_en": "Vanadzor",
    "country": "Армения",
    "region": "Лори",
    "city": "Ванадзор",
    "lat": 40.807399,
    "lng": 44.4970268
  },
  {
    "country_en": "Armenia",
    "region_en": "Shirak Province",
    "city_en": "Gyumri",
    "country": "Армения",
    "region": "Ширак",
    "city": "Гюмри",
    "lat": 40.7929026,
    "lng": 43.8464971
  },
  {
    "country_en": "Angola",
    "region_en": "Uige",
    "city_en": "Uige",
    "country": "Ангола",
    "region": "Уиже",
    "city": "Уиже",
    "lat": -7.6102105,
    "lng": 15.0615865
  },
  {
    "country_en": "Angola",
    "region_en": "Zaire",
    "city_en": "Soio",
    "country": "Ангола",
    "region": "Заир",
    "city": "Сойо",
    "lat": -6.1410265,
    "lng": 12.3521148
  },
  {
    "country_en": "Angola",
    "region_en": "Cuanza Norte",
    "city_en": "N'dalatando",
    "country": "Ангола",
    "region": "Южная Кванза",
    "city": "Н'Далатандо",
    "lat": -9.2993916,
    "lng": 14.9096846
  },
  {
    "country_en": "Angola",
    "region_en": "Malanje",
    "city_en": "Malanje",
    "country": "Ангола",
    "region": "Malanje Province",
    "city": "Malanje",
    "lat": -9.5418224,
    "lng": 16.3346061
  },
  {
    "country_en": "Angola",
    "region_en": "Luanda",
    "city_en": "Luanda",
    "country": "Ангола",
    "region": "Луанда",
    "city": "Луанда",
    "lat": -8.8399876,
    "lng": 13.2894368
  },
  {
    "country_en": "Angola",
    "region_en": "Cabinda",
    "city_en": "Cabinda",
    "country": "Ангола",
    "region": "Кабинда",
    "city": "Кабинда",
    "lat": -5.5705739,
    "lng": 12.197583
  },
  {
    "country_en": "Angola",
    "region_en": "Namibe",
    "city_en": "Namibe",
    "country": "Ангола",
    "region": "Намибе",
    "city": "Намибе",
    "lat": -15.1978317,
    "lng": 12.1575544
  },
  {
    "country_en": "Angola",
    "region_en": "Huila",
    "city_en": "Lubango",
    "country": "Ангола",
    "region": "Huila",
    "city": "Lubango",
    "lat": -14.9186136,
    "lng": 13.5321234
  },
  {
    "country_en": "Angola",
    "region_en": "Benguela",
    "city_en": "Lobito",
    "country": "Ангола",
    "region": "Бенгела",
    "city": "Лобиту",
    "lat": -12.3757287,
    "lng": 13.5610451
  },
  {
    "country_en": "Angola",
    "region_en": "Bie",
    "city_en": "Cuito",
    "country": "Ангола",
    "region": "Бай",
    "city": "Силва-Порту",
    "lat": -12.3940412,
    "lng": 16.9417632
  },
  {
    "country_en": "Angola",
    "region_en": "Huambo",
    "city_en": "Huambo",
    "country": "Ангола",
    "region": "Уамбо",
    "city": "Уамбо",
    "lat": -12.7739761,
    "lng": 15.7468535
  },
  {
    "country_en": "Angola",
    "region_en": "Benguela",
    "city_en": "Benguela",
    "country": "Ангола",
    "region": "Бенгела",
    "city": "Бенгела",
    "lat": -12.5905158,
    "lng": 13.416501
  },
  {
    "country_en": "Argentina",
    "region_en": "Buenos Aires",
    "city_en": "Zarate",
    "country": "Аргентина",
    "region": "Буэнос-Айрес",
    "city": "Сарате",
    "lat": -34.0957811,
    "lng": -59.0242302
  },
  {
    "country_en": "Argentina",
    "region_en": "Buenos Aires",
    "city_en": "Tandil",
    "country": "Аргентина",
    "region": "Буэнос-Айрес",
    "city": "Тандил",
    "lat": -37.3287999,
    "lng": -59.1367167
  },
  {
    "country_en": "Argentina",
    "region_en": "Chaco",
    "city_en": "Resistencia",
    "country": "Аргентина",
    "region": "Чако",
    "city": "Ресистенсия",
    "lat": -27.4518622,
    "lng": -58.9855547
  },
  {
    "country_en": "Argentina",
    "region_en": "Santa Fe",
    "city_en": "Reconquista",
    "country": "Аргентина",
    "region": "Санта-Фе",
    "city": "Реконкиста",
    "lat": -29.1448193,
    "lng": -59.6435242
  },
  {
    "country_en": "Argentina",
    "region_en": "Buenos Aires",
    "city_en": "Quilmes",
    "country": "Аргентина",
    "region": "Буэнос-Айрес",
    "city": "Кильмес",
    "lat": -34.7206336,
    "lng": -58.2546051
  },
  {
    "country_en": "Argentina",
    "region_en": "Misiones",
    "city_en": "Puerto Eldorado",
    "country": "Аргентина",
    "region": "Мисьонес",
    "city": "Эль Дорадо",
    "lat": -26.3999195,
    "lng": -54.626812
  },
  {
    "country_en": "Argentina",
    "region_en": "Misiones",
    "city_en": "Posadas",
    "country": "Аргентина",
    "region": "Мисьонес",
    "city": "Посадас",
    "lat": -27.3621374,
    "lng": -55.9008746
  },
  {
    "country_en": "Argentina",
    "region_en": "Misiones",
    "city_en": "Obera",
    "country": "Аргентина",
    "region": "Мисьонес",
    "city": "Обера",
    "lat": -27.4867802,
    "lng": -55.1203326
  },
  {
    "country_en": "Argentina",
    "region_en": "Buenos Aires",
    "city_en": "Necochea",
    "country": "Аргентина",
    "region": "Буэнос-Айрес",
    "city": "Некочеа",
    "lat": -38.5544968,
    "lng": -58.7396088
  },
  {
    "country_en": "Argentina",
    "region_en": "Buenos Aires",
    "city_en": "Moron",
    "country": "Аргентина",
    "region": "Буэнос-Айрес",
    "city": "Морон",
    "lat": -34.6558611,
    "lng": -58.6167212
  },
  {
    "country_en": "Argentina",
    "region_en": "Buenos Aires",
    "city_en": "Mercedes",
    "country": "Аргентина",
    "region": "Буэнос-Айрес",
    "city": "Мерседес",
    "lat": -34.6510201,
    "lng": -59.4305996
  },
  {
    "country_en": "Argentina",
    "region_en": "Buenos Aires",
    "city_en": "Mar del Plata",
    "country": "Аргентина",
    "region": "Буэнос-Айрес",
    "city": "Мар-дель-Плата",
    "lat": -38.0054771,
    "lng": -57.5426106
  },
  {
    "country_en": "Argentina",
    "region_en": "Buenos Aires",
    "city_en": "Lujan",
    "country": "Аргентина",
    "region": "Буэнос-Айрес",
    "city": "Лухан",
    "lat": -34.5633312,
    "lng": -59.1208805
  },
  {
    "country_en": "Argentina",
    "region_en": "Buenos Aires",
    "city_en": "La Plata",
    "country": "Аргентина",
    "region": "Буэнос-Айрес",
    "city": "Ла-Плата",
    "lat": -34.9204948,
    "lng": -57.9535657
  },
  {
    "country_en": "Argentina",
    "region_en": "Entre Rios",
    "city_en": "Gualeguaychu",
    "country": "Аргентина",
    "region": "Энтре-Риос",
    "city": "Гуалегуайчу",
    "lat": -33.0077778,
    "lng": -58.5111667
  },
  {
    "country_en": "Argentina",
    "region_en": "Corrientes",
    "city_en": "Goya",
    "country": "Аргентина",
    "region": "Корриентес",
    "city": "Гойя",
    "lat": -29.1442242,
    "lng": -59.2643242
  },
  {
    "country_en": "Argentina",
    "region_en": "Formosa",
    "city_en": "Formosa",
    "country": "Аргентина",
    "region": "Формоса",
    "city": "Формоза",
    "lat": -26.1857768,
    "lng": -58.1755669
  },
  {
    "country_en": "Argentina",
    "region_en": "Corrientes",
    "city_en": "Corrientes",
    "country": "Аргентина",
    "region": "Корриентес",
    "city": "Корриентес",
    "lat": -27.4692131,
    "lng": -58.8306349
  },
  {
    "country_en": "Argentina",
    "region_en": "Entre Rios",
    "city_en": "Concordia",
    "country": "Аргентина",
    "region": "Энтре-Риос",
    "city": "Конкордия",
    "lat": -31.3913921,
    "lng": -58.017434
  },
  {
    "country_en": "Argentina",
    "region_en": "Entre Rios",
    "city_en": "Concepcion del Uruguay",
    "country": "Аргентина",
    "region": "Энтре-Риос",
    "city": "Консепсьон дель Уругуай",
    "lat": -32.4845349,
    "lng": -58.2321416
  },
  {
    "country_en": "Argentina",
    "region_en": "Buenos Aires",
    "city_en": "Campana",
    "country": "Аргентина",
    "region": "Буэнос-Айрес",
    "city": "Кампана",
    "lat": -34.1633346,
    "lng": -58.9592643
  },
  {
    "country_en": "Argentina",
    "region_en": "Buenos Aires F.D.",
    "city_en": "Buenos Aires",
    "country": "Аргентина",
    "region": "Автономный город Буэнос-Айрес",
    "city": "Буэнос-Айрес",
    "lat": -34.6036844,
    "lng": -58.3815591
  },
  {
    "country_en": "Argentina",
    "region_en": "Chaco",
    "city_en": "Barranqueras",
    "country": "Аргентина",
    "region": "Чако",
    "city": "Барранкерас",
    "lat": -27.4822998,
    "lng": -58.9334106
  },
  {
    "country_en": "Argentina",
    "region_en": "Buenos Aires",
    "city_en": "Azul",
    "country": "Аргентина",
    "region": "Буэнос-Айрес",
    "city": "Асуль",
    "lat": -36.7749672,
    "lng": -59.8540382
  },
  {
    "country_en": "Argentina",
    "region_en": "Tucuman",
    "city_en": "Yerba Buena",
    "country": "Аргентина",
    "region": "Тукуман",
    "city": "Ерба Буэна",
    "lat": -26.8166695,
    "lng": -65.3166809
  },
  {
    "country_en": "Argentina",
    "region_en": "Cordoba",
    "city_en": "Villa Maria",
    "country": "Аргентина",
    "region": "Кордова",
    "city": "Вилья Мария",
    "lat": -32.4104614,
    "lng": -63.243645
  },
  {
    "country_en": "Argentina",
    "region_en": "Cordoba",
    "city_en": "Villa Carlos Paz",
    "country": "Аргентина",
    "region": "Кордова",
    "city": "Вилья-Карлос-Пас",
    "lat": -31.4207828,
    "lng": -64.4992141
  },
  {
    "country_en": "Argentina",
    "region_en": "Santa Fe",
    "city_en": "Venado Tuerto",
    "country": "Аргентина",
    "region": "Санта-Фе",
    "city": "Венадо Туэрто",
    "lat": -33.7455566,
    "lng": -61.9690161
  },
  {
    "country_en": "Argentina",
    "region_en": "Tierra del Fuego",
    "city_en": "Ushuaia",
    "country": "Аргентина",
    "region": "Огненная Земля",
    "city": "Ушуая",
    "lat": -54.8019121,
    "lng": -68.3029511
  },
  {
    "country_en": "Argentina",
    "region_en": "Chubut",
    "city_en": "Trelew",
    "country": "Аргентина",
    "region": "Чубут",
    "city": "Трелью",
    "lat": -43.2493016,
    "lng": -65.3076351
  },
  {
    "country_en": "Argentina",
    "region_en": "Salta",
    "city_en": "Tartagal",
    "country": "Аргентина",
    "region": "Сальта",
    "city": "Тартагаль",
    "lat": -22.5167622,
    "lng": -63.8056084
  },
  {
    "country_en": "Argentina",
    "region_en": "Santa Fe",
    "city_en": "Santo Tome",
    "country": "Аргентина",
    "region": "Санта-Фе",
    "city": "Санто Томе",
    "lat": -31.6622189,
    "lng": -60.7616339
  },
  {
    "country_en": "Argentina",
    "region_en": "Santiago del Estero",
    "city_en": "Santiago del Estero",
    "country": "Аргентина",
    "region": "Сантьяго-дель-Эстеро",
    "city": "Сантьяго-дель-Эстеро",
    "lat": -27.7833574,
    "lng": -64.264167
  },
  {
    "country_en": "Argentina",
    "region_en": "La Pampa",
    "city_en": "Santa Rosa",
    "country": "Аргентина",
    "region": "Ла-Пампа",
    "city": "Санта-Роса",
    "lat": -36.620922,
    "lng": -64.2912369
  },
  {
    "country_en": "Argentina",
    "region_en": "Santa Fe",
    "city_en": "Santa Fe de la Vera Cruz",
    "country": "Аргентина",
    "region": "Santa Fe",
    "city": "La Capital",
    "lat": -31.5224118,
    "lng": -60.6826684
  },
  {
    "country_en": "Argentina",
    "region_en": "Jujuy",
    "city_en": "San Salvador de Jujuy",
    "country": "Аргентина",
    "region": "Жужуй",
    "city": "Жужуй",
    "lat": -24.1857864,
    "lng": -65.2994767
  },
  {
    "country_en": "Argentina",
    "region_en": "Salta",
    "city_en": "San Ramon de la Nueva Oran",
    "country": "Аргентина",
    "region": "Сальта",
    "city": "Сан-Рамон-де-ла-Нуэва-Оран",
    "lat": -23.128383,
    "lng": -64.3216987
  },
  {
    "country_en": "Argentina",
    "region_en": "Mendoza",
    "city_en": "San Rafael",
    "country": "Аргентина",
    "region": "Мендоса",
    "city": "Сан-Рафаэль",
    "lat": -34.6128922,
    "lng": -68.3390622
  },
  {
    "country_en": "Argentina",
    "region_en": "Jujuy",
    "city_en": "San Pedro",
    "country": "Аргентина",
    "region": "Jujuy",
    "city": "San Pedro",
    "lat": -24.23127,
    "lng": -64.86614
  },
  {
    "country_en": "Argentina",
    "region_en": "Buenos Aires",
    "city_en": "San Nicolas de los Arroyos",
    "country": "Аргентина",
    "region": "Буэнос-Айрес",
    "city": "Сан Николас де Лос Арройос",
    "lat": -33.3334669,
    "lng": -60.2110494
  },
  {
    "country_en": "Argentina",
    "region_en": "Tucuman",
    "city_en": "San Miguel de Tucuman",
    "country": "Аргентина",
    "region": "Тукуман",
    "city": "Сан-Мигель-де-Тукуман",
    "lat": -26.8082848,
    "lng": -65.2175903
  },
  {
    "country_en": "Argentina",
    "region_en": "Mendoza",
    "city_en": "San Martin",
    "country": "Аргентина",
    "region": "Мендоса",
    "city": "Сан Мартин",
    "lat": -33.0806497,
    "lng": -68.47057
  },
  {
    "country_en": "Argentina",
    "region_en": "San Luis",
    "city_en": "San Luis",
    "country": "Аргентина",
    "region": "Сан-Луис",
    "city": "Сан-Луис",
    "lat": -33.3017267,
    "lng": -66.3377522
  },
  {
    "country_en": "Argentina",
    "region_en": "San Juan",
    "city_en": "San Juan",
    "country": "Аргентина",
    "region": "Сан-Хуан",
    "city": "Сан-Хуан",
    "lat": -31.5351074,
    "lng": -68.5385941
  },
  {
    "country_en": "Argentina",
    "region_en": "Cordoba",
    "city_en": "San Francisco",
    "country": "Аргентина",
    "region": "Кордова",
    "city": "Сан Франсиско",
    "lat": -31.4249992,
    "lng": -62.0841599
  },
  {
    "country_en": "Argentina",
    "region_en": "Catamarca",
    "city_en": "San Fernando del Valle de Catamarca",
    "country": "Аргентина",
    "region": "Катамарка",
    "city": "Катамарка",
    "lat": -28.469581,
    "lng": -65.7795441
  },
  {
    "country_en": "Argentina",
    "region_en": "Salta",
    "city_en": "Salta",
    "country": "Аргентина",
    "region": "Сальта",
    "city": "Сальта",
    "lat": -24.7821269,
    "lng": -65.4231976
  },
  {
    "country_en": "Argentina",
    "region_en": "Santa Fe",
    "city_en": "Rosario",
    "country": "Аргентина",
    "region": "Санта-Фе",
    "city": "Росарио",
    "lat": -32.9442426,
    "lng": -60.6505388
  },
  {
    "country_en": "Argentina",
    "region_en": "Cordoba",
    "city_en": "Rio Tercero",
    "country": "Аргентина",
    "region": "Кордова",
    "city": "Рио Терсеро",
    "lat": -32.1766541,
    "lng": -64.1130995
  },
  {
    "country_en": "Argentina",
    "region_en": "Santa Cruz",
    "city_en": "Rio Gallegos",
    "country": "Аргентина",
    "region": "Санта-Круз",
    "city": "Рио-Гальегос",
    "lat": -51.6230485,
    "lng": -69.2168291
  },
  {
    "country_en": "Argentina",
    "region_en": "Cordoba",
    "city_en": "Rio Cuarto",
    "country": "Аргентина",
    "region": "Кордова",
    "city": "Рио-Куарто",
    "lat": -33.1231585,
    "lng": -64.3493441
  },
  {
    "country_en": "Argentina",
    "region_en": "Santa Fe",
    "city_en": "Rafaela",
    "country": "Аргентина",
    "region": "Санта-Фе",
    "city": "Рафаэла",
    "lat": -31.2525979,
    "lng": -61.4916422
  },
  {
    "country_en": "Argentina",
    "region_en": "Buenos Aires",
    "city_en": "Punta Alta",
    "country": "Аргентина",
    "region": "Буэнос-Айрес",
    "city": "Пунта Альта",
    "lat": -38.8760605,
    "lng": -62.074089
  },
  {
    "country_en": "Argentina",
    "region_en": "Chubut",
    "city_en": "Puerto Madryn",
    "country": "Аргентина",
    "region": "Чубут",
    "city": "Пуэрто-Мадрин",
    "lat": -42.7694476,
    "lng": -65.0317175
  },
  {
    "country_en": "Argentina",
    "region_en": "Chaco",
    "city_en": "Presidencia Roque Saenz Pena",
    "country": "Аргентина",
    "region": "Чако",
    "city": "Пресиденсия Роке Саэнс Пенья",
    "lat": -26.7906895,
    "lng": -60.4402504
  },
  {
    "country_en": "Argentina",
    "region_en": "Buenos Aires",
    "city_en": "Pergamino",
    "country": "Аргентина",
    "region": "Буэнос-Айрес",
    "city": "Пергамино",
    "lat": -33.8912831,
    "lng": -60.5745999
  },
  {
    "country_en": "Argentina",
    "region_en": "Entre Rios",
    "city_en": "Parana",
    "country": "Аргентина",
    "region": "Энтре-Риос",
    "city": "Парана",
    "lat": -31.7413197,
    "lng": -60.5115471
  },
  {
    "country_en": "Argentina",
    "region_en": "Buenos Aires",
    "city_en": "Olavarria",
    "country": "Аргентина",
    "region": "Буэнос-Айрес",
    "city": "Олаваррия",
    "lat": -36.8937167,
    "lng": -60.3233499
  },
  {
    "country_en": "Argentina",
    "region_en": "Neuquen",
    "city_en": "Neuquen",
    "country": "Аргентина",
    "region": "Неукен",
    "city": "Неукен",
    "lat": -38.9516784,
    "lng": -68.0591888
  },
  {
    "country_en": "Argentina",
    "region_en": "Mendoza",
    "city_en": "Mendoza",
    "country": "Аргентина",
    "region": "Мендоса",
    "city": "Мендоса",
    "lat": -32.8894587,
    "lng": -68.8458386
  },
  {
    "country_en": "Argentina",
    "region_en": "La Rioja",
    "city_en": "La Rioja",
    "country": "Аргентина",
    "region": "Ла-Риоха",
    "city": "Ла-Риоха",
    "lat": -29.4134538,
    "lng": -66.8564579
  },
  {
    "country_en": "Argentina",
    "region_en": "Buenos Aires",
    "city_en": "Junin",
    "country": "Аргентина",
    "region": "Буэнос-Айрес",
    "city": "Хунин",
    "lat": -34.5885499,
    "lng": -60.949554
  },
  {
    "country_en": "Argentina",
    "region_en": "Santa Fe",
    "city_en": "Gobernador Galvez",
    "country": "Аргентина",
    "region": "Санта-Фе",
    "city": "Гобернадор Гальвес",
    "lat": -33.0624619,
    "lng": -60.615849
  },
  {
    "country_en": "Argentina",
    "region_en": "Rio Negro",
    "city_en": "General Roca",
    "country": "Аргентина",
    "region": "Рио-Негро",
    "city": "Хенераль-Рока",
    "lat": -39.0267525,
    "lng": -67.5751724
  },
  {
    "country_en": "Argentina",
    "region_en": "La Pampa",
    "city_en": "General Pico",
    "country": "Аргентина",
    "region": "Ла-Пампа",
    "city": "Хенераль Пико",
    "lat": -35.6593239,
    "lng": -63.7577887
  },
  {
    "country_en": "Argentina",
    "region_en": "Cordoba",
    "city_en": "Cordoba",
    "country": "Аргентина",
    "region": "Кордова",
    "city": "Кордова",
    "lat": -31.4200833,
    "lng": -64.1887761
  },
  {
    "country_en": "Argentina",
    "region_en": "Chubut",
    "city_en": "Comodoro Rivadavia",
    "country": "Аргентина",
    "region": "Чубут",
    "city": "Комодоро-Ривадавия",
    "lat": -45.8656149,
    "lng": -67.4822429
  },
  {
    "country_en": "Argentina",
    "region_en": "Rio Negro",
    "city_en": "Cipolletti",
    "country": "Аргентина",
    "region": "Рио-Негро",
    "city": "Чиполлетти",
    "lat": -38.938771,
    "lng": -67.9954929
  },
  {
    "country_en": "Argentina",
    "region_en": "Buenos Aires",
    "city_en": "Chivilcoy",
    "country": "Аргентина",
    "region": "Буэнос-Айрес",
    "city": "Чивилькой",
    "lat": -34.8969795,
    "lng": -60.0190731
  },
  {
    "country_en": "Argentina",
    "region_en": "San Juan",
    "city_en": "Chimbas",
    "country": "Аргентина",
    "region": "Сан-Хуан",
    "city": "Чимбас",
    "lat": -31.4965964,
    "lng": -68.5317615
  },
  {
    "country_en": "Argentina",
    "region_en": "Buenos Aires",
    "city_en": "Bahia Blanca",
    "country": "Аргентина",
    "region": "Буэнос-Айрес",
    "city": "Баия-Бланка",
    "lat": -38.7183177,
    "lng": -62.2663478
  },
  {
    "country_en": "Argentina",
    "region_en": "San Luis",
    "city_en": "Villa Mercedes",
    "country": "Аргентина",
    "region": "Сан-Луис",
    "city": "Вилья Мерседес",
    "lat": -33.6754417,
    "lng": -65.4580688
  },
  {
    "country_en": "Argentina",
    "region_en": "Rio Negro",
    "city_en": "San Carlos de Bariloche",
    "country": "Аргентина",
    "region": "Рио-Негро",
    "city": "Сан-Карлос-де-Барилоче",
    "lat": -41.1334722,
    "lng": -71.3102778
  },
  {
    "country_en": "Austria",
    "region_en": "Vienna",
    "city_en": "Vienna",
    "country": "Австрия",
    "region": "Вена",
    "city": "Вена",
    "lat": 48.2081743,
    "lng": 16.3738189
  },
  {
    "country_en": "Austria",
    "region_en": "Upper Austria",
    "city_en": "Wels",
    "country": "Австрия",
    "region": "Верхняя Австрия",
    "city": "Вельс",
    "lat": 48.16542,
    "lng": 14.03664
  },
  {
    "country_en": "Austria",
    "region_en": "Carinthia",
    "city_en": "Villach",
    "country": "Австрия",
    "region": "Каринтия",
    "city": "Филлах",
    "lat": 46.60856,
    "lng": 13.85062
  },
  {
    "country_en": "Austria",
    "region_en": "Salzburg",
    "city_en": "Salzburg",
    "country": "Австрия",
    "region": "Зальцбург",
    "city": "Зальцбург",
    "lat": 47.80949,
    "lng": 13.05501
  },
  {
    "country_en": "Austria",
    "region_en": "Upper Austria",
    "city_en": "Linz",
    "country": "Австрия",
    "region": "Верхняя Австрия",
    "city": "Линц",
    "lat": 48.30694,
    "lng": 14.28583
  },
  {
    "country_en": "Austria",
    "region_en": "Carinthia",
    "city_en": "Klagenfurt am Woerthersee",
    "country": "Австрия",
    "region": "Каринтия",
    "city": "Клагенфурт",
    "lat": 46.6364598,
    "lng": 14.3122246
  },
  {
    "country_en": "Austria",
    "region_en": "Tyrol",
    "city_en": "Innsbruck",
    "country": "Австрия",
    "region": "Тироль",
    "city": "Иннсбрук",
    "lat": 47.2692124,
    "lng": 11.4041024
  },
  {
    "country_en": "Austria",
    "region_en": "Styria",
    "city_en": "Graz",
    "country": "Австрия",
    "region": "Штирия",
    "city": "Грац",
    "lat": 47.070714,
    "lng": 15.439504
  },
  {
    "country_en": "Australia",
    "region_en": "Western Australia",
    "city_en": "Perth",
    "country": "Австралия",
    "region": "Западная Австралия",
    "city": "Перт",
    "lat": -31.9535132,
    "lng": 115.8570471
  },
  {
    "country_en": "Australia",
    "region_en": "Western Australia",
    "city_en": "Mandurah",
    "country": "Австралия",
    "region": "Западная Австралия",
    "city": "Мандъюра",
    "lat": -32.5368093,
    "lng": 115.7427457
  },
  {
    "country_en": "Australia",
    "region_en": "Northern Territory",
    "city_en": "Darwin",
    "country": "Австралия",
    "region": "Северная территория",
    "city": "Дарвин",
    "lat": -12.4628271,
    "lng": 130.8417772
  },
  {
    "country_en": "Australia",
    "region_en": "South Australia",
    "city_en": "Adelaide",
    "country": "Австралия",
    "region": "Южная Австралия",
    "city": "Аделаида",
    "lat": -34.9286212,
    "lng": 138.5999594
  },
  {
    "country_en": "Australia",
    "region_en": "Queensland",
    "city_en": "Townsville",
    "country": "Австралия",
    "region": "Квинсленд",
    "city": "Таунсвилл",
    "lat": -19.2576223,
    "lng": 146.8178787
  },
  {
    "country_en": "Australia",
    "region_en": "Queensland",
    "city_en": "Toowoomba",
    "country": "Австралия",
    "region": "Квинсленд",
    "city": "Тувумба",
    "lat": -27.56433,
    "lng": 151.9539874
  },
  {
    "country_en": "Australia",
    "region_en": "New South Wales",
    "city_en": "Sydney",
    "country": "Австралия",
    "region": "Новый Южный Уэльс",
    "city": "Сидней",
    "lat": -33.8674869,
    "lng": 151.2069902
  },
  {
    "country_en": "Australia",
    "region_en": "Queensland",
    "city_en": "Rockhampton",
    "country": "Австралия",
    "region": "Квинсленд",
    "city": "Рокхемптон",
    "lat": -23.3779152,
    "lng": 150.5101026
  },
  {
    "country_en": "Australia",
    "region_en": "New South Wales",
    "city_en": "Newcastle",
    "country": "Австралия",
    "region": "Новый Южный Уэльс",
    "city": "Ньюкасл",
    "lat": -32.926696,
    "lng": 151.7788922
  },
  {
    "country_en": "Australia",
    "region_en": "Victoria",
    "city_en": "Melbourne",
    "country": "Австралия",
    "region": "Виктория",
    "city": "Мельбурн",
    "lat": -37.814107,
    "lng": 144.96328
  },
  {
    "country_en": "Australia",
    "region_en": "New South Wales",
    "city_en": "Maitland",
    "country": "Австралия",
    "region": "Новый Южный Уэльс",
    "city": "Мейтленд",
    "lat": -32.7336636,
    "lng": 151.5576677
  },
  {
    "country_en": "Australia",
    "region_en": "Queensland",
    "city_en": "Mackay",
    "country": "Австралия",
    "region": "Квинсленд",
    "city": "Макей",
    "lat": -21.1412101,
    "lng": 149.1856253
  },
  {
    "country_en": "Australia",
    "region_en": "Tasmania",
    "city_en": "Launceston",
    "country": "Австралия",
    "region": "Тасмания",
    "city": "Лонсестон",
    "lat": -41.4370868,
    "lng": 147.1393767
  },
  {
    "country_en": "Australia",
    "region_en": "Tasmania",
    "city_en": "Hobart",
    "country": "Австралия",
    "region": "Тасмания",
    "city": "Хобарт",
    "lat": -42.8819032,
    "lng": 147.3238148
  },
  {
    "country_en": "Australia",
    "region_en": "Queensland",
    "city_en": "Gold Coast",
    "country": "Австралия",
    "region": "Квинсленд",
    "city": "Голд-Кост",
    "lat": -28.0172605,
    "lng": 153.4256987
  },
  {
    "country_en": "Australia",
    "region_en": "Victoria",
    "city_en": "Geelong",
    "country": "Австралия",
    "region": "Виктория",
    "city": "Джилонг",
    "lat": -38.1485437,
    "lng": 144.3613479
  },
  {
    "country_en": "Australia",
    "region_en": "Australian Capital Territory",
    "city_en": "Canberra",
    "country": "Австралия",
    "region": "Территория столицы Австралии",
    "city": "Канберра",
    "lat": -35.282,
    "lng": 149.128684
  },
  {
    "country_en": "Australia",
    "region_en": "Queensland",
    "city_en": "Cairns",
    "country": "Австралия",
    "region": "Квинсленд",
    "city": "Кэрнс",
    "lat": -16.9203338,
    "lng": 145.7708595
  },
  {
    "country_en": "Australia",
    "region_en": "Queensland",
    "city_en": "Bundaberg",
    "country": "Австралия",
    "region": "Квинсленд",
    "city": "Бандаберг",
    "lat": -24.8653911,
    "lng": 152.3487394
  },
  {
    "country_en": "Australia",
    "region_en": "Queensland",
    "city_en": "Brisbane",
    "country": "Австралия",
    "region": "Квинсленд",
    "city": "Брисбен",
    "lat": -27.4710107,
    "lng": 153.0234489
  },
  {
    "country_en": "Australia",
    "region_en": "Victoria",
    "city_en": "Bendigo",
    "country": "Австралия",
    "region": "Виктория",
    "city": "Бендиго",
    "lat": -36.7587109,
    "lng": 144.2837466
  },
  {
    "country_en": "Australia",
    "region_en": "Victoria",
    "city_en": "Ballarat",
    "country": "Австралия",
    "region": "Виктория",
    "city": "Балларат",
    "lat": -37.5636495,
    "lng": 143.8671868
  },
  {
    "country_en": "Australia",
    "region_en": "Queensland",
    "city_en": "Logan City",
    "country": "Австралия",
    "region": "Квинсленд",
    "city": "Квинсленд",
    "lat": -27.6410476,
    "lng": 153.107509
  },
  {
    "country_en": "Australia",
    "region_en": "South Australia",
    "city_en": "Adelaide Hills",
    "country": "Австралия",
    "region": "Южная Австралия",
    "city": "Южная Австралия",
    "lat": -34.9998249,
    "lng": 138.7995122
  },
  {
    "country_en": "Azerbaijan",
    "region_en": "Xankandi Sahari",
    "city_en": "Xankandi",
    "country": "Азербайджан",
    "region": "Xankandi Sahari",
    "city": "Степанакерт",
    "lat": 39.8265268,
    "lng": 46.7655621
  },
  {
    "country_en": "Azerbaijan",
    "region_en": "Saatli",
    "city_en": "Saatli",
    "country": "Азербайджан",
    "region": "Saatli",
    "city": "Саатлинский район",
    "lat": 39.9095503,
    "lng": 48.3595122
  },
  {
    "country_en": "Azerbaijan",
    "region_en": "Nakhichevan",
    "city_en": "Nakhchivan",
    "country": "Азербайджан",
    "region": "Nakhchivan Autonomous Republic",
    "city": "Нахичевань",
    "lat": 39.2009126,
    "lng": 45.4082269
  },
  {
    "country_en": "Azerbaijan",
    "region_en": "Lankaran",
    "city_en": "Lankaran",
    "country": "Азербайджан",
    "region": "Lankaran",
    "city": "Ленкорань",
    "lat": 38.7528669,
    "lng": 48.8475015
  },
  {
    "country_en": "Azerbaijan",
    "region_en": "Shirvan",
    "city_en": "Sirvan",
    "country": "Азербайджан",
    "region": "Shirvan",
    "city": "Ширван",
    "lat": 39.9265747,
    "lng": 48.9205727
  },
  {
    "country_en": "Azerbaijan",
    "region_en": "Yevlax City",
    "city_en": "Yevlakh",
    "country": "Азербайджан",
    "region": "Yevlax City",
    "city": "Евлах",
    "lat": 40.6196638,
    "lng": 47.1500324
  },
  {
    "country_en": "Azerbaijan",
    "region_en": "Sumqayit",
    "city_en": "Sumqayit",
    "country": "Азербайджан",
    "region": "Sumqayit",
    "city": "Сумгаит",
    "lat": 40.5854765,
    "lng": 49.6317411
  },
  {
    "country_en": "Azerbaijan",
    "region_en": "Baki",
    "city_en": "Qaracuxur",
    "country": "Азербайджан",
    "region": "Baki",
    "city": "Сураханы",
    "lat": 40.3999248,
    "lng": 49.9789212
  },
  {
    "country_en": "Azerbaijan",
    "region_en": "Shaki City",
    "city_en": "Sheki",
    "country": "Азербайджан",
    "region": "Shaki City",
    "city": "Шеки",
    "lat": 41.1974753,
    "lng": 47.1571241
  },
  {
    "country_en": "Azerbaijan",
    "region_en": "Mingacevir City",
    "city_en": "Mingelchaur",
    "country": "Азербайджан",
    "region": "Mingacevir City",
    "city": "Мингечаур",
    "lat": 40.7702563,
    "lng": 47.0496015
  },
  {
    "country_en": "Azerbaijan",
    "region_en": "Ganja City",
    "city_en": "Ganja",
    "country": "Азербайджан",
    "region": "Ganja City",
    "city": "Гянджа",
    "lat": 40.6878581,
    "lng": 46.3723313
  },
  {
    "country_en": "Azerbaijan",
    "region_en": "Baki",
    "city_en": "Baku",
    "country": "Азербайджан",
    "region": "Baki",
    "city": "Баку",
    "lat": 40.4092617,
    "lng": 49.8670924
  },
  {
    "country_en": "Azerbaijan",
    "region_en": "Baki",
    "city_en": "Bakixanov",
    "country": "Азербайджан",
    "region": "Baki",
    "city": "Сабунчи",
    "lat": 40.4249808,
    "lng": 49.950331
  },
  {
    "country_en": "Bosnia and Herzegovina",
    "region_en": "Federation of Bosnia and Herzegovina",
    "city_en": "Zenica",
    "country": "Босния и Герцеговина",
    "region": "Федерация Боснии и Герцеговины",
    "city": "Зеница",
    "lat": 44.2034392,
    "lng": 17.9077432
  },
  {
    "country_en": "Bosnia and Herzegovina",
    "region_en": "Federation of Bosnia and Herzegovina",
    "city_en": "Tuzla",
    "country": "Босния и Герцеговина",
    "region": "Федерација Босне и Херцеговине",
    "city": "Тузла",
    "lat": 44.5374611,
    "lng": 18.6734688
  },
  {
    "country_en": "Bosnia and Herzegovina",
    "region_en": "Federation of Bosnia and Herzegovina",
    "city_en": "Sarajevo",
    "country": "Босния и Герцеговина",
    "region": "Федерация Боснии и Герцеговины",
    "city": "Сараево",
    "lat": 43.8562586,
    "lng": 18.4130763
  },
  {
    "country_en": "Bosnia and Herzegovina",
    "region_en": "Federation of Bosnia and Herzegovina",
    "city_en": "Mostar",
    "country": "Босния и Герцеговина",
    "region": "Федерация Боснии и Герцеговины",
    "city": "Мостар",
    "lat": 43.3437748,
    "lng": 17.8077578
  },
  {
    "country_en": "Bosnia and Herzegovina",
    "region_en": "Federation of Bosnia and Herzegovina",
    "city_en": "Bihac",
    "country": "Босния и Герцеговина",
    "region": "Федерация Боснии и Герцеговины",
    "city": "Бихач",
    "lat": 44.8119628,
    "lng": 15.8685645
  },
  {
    "country_en": "Bosnia and Herzegovina",
    "region_en": "Republika Srpska",
    "city_en": "Banja Luka",
    "country": "Босния и Герцеговина",
    "region": "Республика Сербская",
    "city": "Баня-Лука",
    "lat": 44.7721811,
    "lng": 17.191
  },
  {
    "country_en": "Barbados",
    "region_en": "Saint Michael",
    "city_en": "Bridgetown",
    "country": "Барбадос",
    "region": "Сент-Майкл",
    "city": "Бриджтаун",
    "lat": 13.1132219,
    "lng": -59.5988089
  },
  {
    "country_en": "Bangladesh",
    "region_en": "Rangpur Division",
    "city_en": "Thakurgaon",
    "country": "Бангладеш",
    "region": "Rangpur Division",
    "city": "Thakurgaon",
    "lat": 26.0273645,
    "lng": 88.4646107
  },
  {
    "country_en": "Bangladesh",
    "region_en": "Dhaka",
    "city_en": "Tungi",
    "country": "Бангладеш",
    "region": "Dhaka Division",
    "city": "Tongi",
    "lat": 23.8927928,
    "lng": 90.3944001
  },
  {
    "country_en": "Bangladesh",
    "region_en": "Sylhet",
    "city_en": "Sylhet",
    "country": "Бангладеш",
    "region": "Силхет",
    "city": "Силхет",
    "lat": 24.904539,
    "lng": 91.8611011
  },
  {
    "country_en": "Bangladesh",
    "region_en": "Dhaka",
    "city_en": "Jamalpur",
    "country": "Бангладеш",
    "region": "Dhaka Division",
    "city": "Jamalpur",
    "lat": 24.9249785,
    "lng": 89.9463408
  },
  {
    "country_en": "Bangladesh",
    "region_en": "Khulna",
    "city_en": "Satkhira",
    "country": "Бангладеш",
    "region": "Кхулна",
    "city": "Саткхира",
    "lat": 22.7184852,
    "lng": 89.0704766
  },
  {
    "country_en": "Bangladesh",
    "region_en": "Rajshahi",
    "city_en": "Sirajganj",
    "country": "Бангладеш",
    "region": "Раджшахи",
    "city": "Сираджгандж",
    "lat": 24.4526459,
    "lng": 89.6816208
  },
  {
    "country_en": "Bangladesh",
    "region_en": "Dhaka",
    "city_en": "Netrakona",
    "country": "Бангладеш",
    "region": "Дакка",
    "city": "Нетрокона-Садар",
    "lat": 24.8816911,
    "lng": 90.7271479
  },
  {
    "country_en": "Bangladesh",
    "region_en": "Dhaka",
    "city_en": "Narsingdi",
    "country": "Бангладеш",
    "region": "Дакка",
    "city": "Нарсингди",
    "lat": 23.9192671,
    "lng": 90.7176492
  },
  {
    "country_en": "Bangladesh",
    "region_en": "Chittagong",
    "city_en": "Sandwip",
    "country": "Бангладеш",
    "region": "Chittagong",
    "city": "Читагонг",
    "lat": 22.4937132,
    "lng": 91.5015009
  },
  {
    "country_en": "Bangladesh",
    "region_en": "Rajshahi",
    "city_en": "Shahzadpur",
    "country": "Бангладеш",
    "region": "Раджшахи",
    "city": "Шажадпер",
    "lat": 24.1746142,
    "lng": 89.5957281
  },
  {
    "country_en": "Bangladesh",
    "region_en": "Chittagong",
    "city_en": "Ramganj",
    "country": "Бангладеш",
    "region": "Читагонг",
    "city": "Рамгиндж",
    "lat": 23.1001185,
    "lng": 90.8627473
  },
  {
    "country_en": "Bangladesh",
    "region_en": "Rajshahi",
    "city_en": "Rajshahi",
    "country": "Бангладеш",
    "region": "Раджшахи",
    "city": "Раджшахи",
    "lat": 24.3635886,
    "lng": 88.6241351
  },
  {
    "country_en": "Bangladesh",
    "region_en": "Barisal",
    "city_en": "Pirojpur",
    "country": "Бангладеш",
    "region": "Barisal Division",
    "city": "Pirojpur Pourashava",
    "lat": 22.5841051,
    "lng": 89.9720133
  },
  {
    "country_en": "Bangladesh",
    "region_en": "Chittagong",
    "city_en": "Patiya",
    "country": "Бангладеш",
    "region": "Chittagong Division",
    "city": "Patiya",
    "lat": 22.2949889,
    "lng": 91.9759204
  },
  {
    "country_en": "Bangladesh",
    "region_en": "Dhaka",
    "city_en": "Narayanganj",
    "country": "Бангладеш",
    "region": "Дакка",
    "city": "Нараянгандж",
    "lat": 23.6226398,
    "lng": 90.4997973
  },
  {
    "country_en": "Bangladesh",
    "region_en": "Dhaka",
    "city_en": "Nagarpur",
    "country": "Бангладеш",
    "region": "Dhaka Division",
    "city": "Nagarpur",
    "lat": 24.0576707,
    "lng": 89.8762377
  },
  {
    "country_en": "Bangladesh",
    "region_en": "Dhaka",
    "city_en": "Mymensingh",
    "country": "Бангладеш",
    "region": "Дакка",
    "city": "Мименсингх",
    "lat": 24.7434484,
    "lng": 90.3983829
  },
  {
    "country_en": "Bangladesh",
    "region_en": "Sylhet",
    "city_en": "Maulavi Bazar",
    "country": "Бангладеш",
    "region": "Силхет",
    "city": "Маулвибазар",
    "lat": 24.4842661,
    "lng": 91.768487
  },
  {
    "country_en": "Bangladesh",
    "region_en": "Rangpur Division",
    "city_en": "Lalmanirhat",
    "country": "Бангладеш",
    "region": "Rangpur Division",
    "city": "Lalmonirhat",
    "lat": 25.916198,
    "lng": 89.4505802
  },
  {
    "country_en": "Bangladesh",
    "region_en": "Chittagong",
    "city_en": "Laksham",
    "country": "Бангладеш",
    "region": "Chittagong Division",
    "city": "Comilla",
    "lat": 23.4428675,
    "lng": 91.1747807
  },
  {
    "country_en": "Bangladesh",
    "region_en": "Chittagong",
    "city_en": "Comilla",
    "country": "Бангладеш",
    "region": "Читагонг",
    "city": "Комилла",
    "lat": 23.46188,
    "lng": 91.186911
  },
  {
    "country_en": "Bangladesh",
    "region_en": "Rangpur Division",
    "city_en": "Rangpur",
    "country": "Бангладеш",
    "region": "Rangpur Division",
    "city": "Rangpur",
    "lat": 25.7438916,
    "lng": 89.275227
  },
  {
    "country_en": "Bangladesh",
    "region_en": "Khulna",
    "city_en": "Kushtia",
    "country": "Бангладеш",
    "region": "Кхулна",
    "city": "Куштия",
    "lat": 23.8976006,
    "lng": 89.1181849
  },
  {
    "country_en": "Bangladesh",
    "region_en": "Rajshahi",
    "city_en": "Joypur Hat",
    "country": "Бангладеш",
    "region": "Rajshahi Division",
    "city": "Joypurhat",
    "lat": 25.0967735,
    "lng": 89.0227126
  },
  {
    "country_en": "Bangladesh",
    "region_en": "Rajshahi",
    "city_en": "Ishurdi",
    "country": "Бангладеш",
    "region": "Раджшахи",
    "city": "Ишварди",
    "lat": 24.1292024,
    "lng": 89.0657027
  },
  {
    "country_en": "Bangladesh",
    "region_en": "Sylhet",
    "city_en": "Habiganj",
    "country": "Бангладеш",
    "region": "Силхет",
    "city": "Хабигандж",
    "lat": 24.3840055,
    "lng": 91.4168974
  },
  {
    "country_en": "Bangladesh",
    "region_en": "Chittagong",
    "city_en": "Feni",
    "country": "Бангладеш",
    "region": "Chittagong Division",
    "city": "Feni",
    "lat": 23.0159132,
    "lng": 91.3975831
  },
  {
    "country_en": "Bangladesh",
    "region_en": "Chittagong",
    "city_en": "Raipur",
    "country": "Бангладеш",
    "region": "Chittagong Division",
    "city": "Raipur",
    "lat": 23.0366069,
    "lng": 90.7615995
  },
  {
    "country_en": "Bangladesh",
    "region_en": "Dhaka",
    "city_en": "Dhaka",
    "country": "Бангладеш",
    "region": "Дакка",
    "city": "Дакка",
    "lat": 23.810332,
    "lng": 90.4125181
  },
  {
    "country_en": "Bangladesh",
    "region_en": "Chittagong",
    "city_en": "Khagrachhari",
    "country": "Бангладеш",
    "region": "Читагонг",
    "city": "Кхаграчхари",
    "lat": 23.110821,
    "lng": 91.9905996
  },
  {
    "country_en": "Bangladesh",
    "region_en": "Dhaka",
    "city_en": "Bhairab Bazar",
    "country": "Бангладеш",
    "region": "Дакка",
    "city": "Бхайраб",
    "lat": 24.0441592,
    "lng": 90.9856518
  },
  {
    "country_en": "Bangladesh",
    "region_en": "Khulna",
    "city_en": "Narail",
    "country": "Бангладеш",
    "region": "Khulna Division",
    "city": "Narail",
    "lat": 23.1656982,
    "lng": 89.4990219
  },
  {
    "country_en": "Bangladesh",
    "region_en": "Dhaka",
    "city_en": "Tungipara",
    "country": "Бангладеш",
    "region": "Дакка",
    "city": "Тонгипара",
    "lat": 22.9177736,
    "lng": 89.9159785
  },
  {
    "country_en": "Bangladesh",
    "region_en": "Dhaka",
    "city_en": "Sarishabari",
    "country": "Бангладеш",
    "region": "Dhaka Division",
    "city": "Sarishabari",
    "lat": 24.61393,
    "lng": 89.803413
  },
  {
    "country_en": "Bangladesh",
    "region_en": "Dhaka",
    "city_en": "Palang",
    "country": "Бангладеш",
    "region": "Chittagong Division",
    "city": "Cox's Bazar",
    "lat": 21.283502,
    "lng": 92.1005133
  },
  {
    "country_en": "Bangladesh",
    "region_en": "Rajshahi",
    "city_en": "Par Naogaon",
    "country": "Бангладеш",
    "region": "Rajshahi Division",
    "city": "Naogaon",
    "lat": 24.8086321,
    "lng": 88.9519725
  },
  {
    "country_en": "Bangladesh",
    "region_en": "Chittagong",
    "city_en": "Lakshmipur",
    "country": "Бангладеш",
    "region": "Читагонг",
    "city": "Лакшмипур",
    "lat": 22.9454033,
    "lng": 90.8341624
  },
  {
    "country_en": "Bangladesh",
    "region_en": "Dhaka",
    "city_en": "Faridpur",
    "country": "Бангладеш",
    "region": "Dhaka Division",
    "city": "Faridpur",
    "lat": 23.6025239,
    "lng": 89.8364558
  },
  {
    "country_en": "Bangladesh",
    "region_en": "Rangpur Division",
    "city_en": "Dinajpur",
    "country": "Бангладеш",
    "region": "Рангпур",
    "city": "Динаджпур",
    "lat": 25.6216468,
    "lng": 88.6354249
  },
  {
    "country_en": "Bangladesh",
    "region_en": "Chittagong",
    "city_en": "Chittagong",
    "country": "Бангладеш",
    "region": "Читагонг",
    "city": "Читагонг",
    "lat": 22.3475365,
    "lng": 91.8123324
  },
  {
    "country_en": "Bangladesh",
    "region_en": "Chittagong",
    "city_en": "Satkania",
    "country": "Бангладеш",
    "region": "Читагонг",
    "city": "Саткания",
    "lat": 22.1000319,
    "lng": 92.0812289
  },
  {
    "country_en": "Bangladesh",
    "region_en": "Chittagong",
    "city_en": "Cox's Bazar",
    "country": "Бангладеш",
    "region": "Chittagong Division",
    "city": "Gorakghata Municipality",
    "lat": 21.5225389,
    "lng": 91.958344
  },
  {
    "country_en": "Bangladesh",
    "region_en": "Khulna",
    "city_en": "Khulna",
    "country": "Бангладеш",
    "region": "Кхулна",
    "city": "Кхулна",
    "lat": 22.845641,
    "lng": 89.5403279
  },
  {
    "country_en": "Bangladesh",
    "region_en": "Barisal",
    "city_en": "Bhola",
    "country": "Бангладеш",
    "region": "Барисал",
    "city": "Бхола",
    "lat": 22.3316669,
    "lng": 90.8294002
  },
  {
    "country_en": "Bangladesh",
    "region_en": "Barisal",
    "city_en": "Barisal",
    "country": "Бангладеш",
    "region": "Барисал",
    "city": "Барисал",
    "lat": 22.7029212,
    "lng": 90.3465971
  },
  {
    "country_en": "Bangladesh",
    "region_en": "Khulna",
    "city_en": "Jessore",
    "country": "Бангладеш",
    "region": "Кхулна",
    "city": "Джессор",
    "lat": 23.1777682,
    "lng": 89.1801225
  },
  {
    "country_en": "Bangladesh",
    "region_en": "Rajshahi",
    "city_en": "Pabna",
    "country": "Бангладеш",
    "region": "Раджшахи",
    "city": "Пабна",
    "lat": 24.0113256,
    "lng": 89.2562239
  },
  {
    "country_en": "Bangladesh",
    "region_en": "Dhaka",
    "city_en": "Tangail",
    "country": "Бангладеш",
    "region": "Dhaka Division",
    "city": "Tangail",
    "lat": 24.244968,
    "lng": 89.9113052
  },
  {
    "country_en": "Bangladesh",
    "region_en": "Rajshahi",
    "city_en": "Bogra",
    "country": "Бангладеш",
    "region": "Раджшахи",
    "city": "Богра",
    "lat": 24.8435589,
    "lng": 89.3701078
  },
  {
    "country_en": "Bangladesh",
    "region_en": "Rajshahi",
    "city_en": "Nawabganj",
    "country": "Бангладеш",
    "region": "Раджшахи",
    "city": "Навабгандж",
    "lat": 24.5797195,
    "lng": 88.2704497
  },
  {
    "country_en": "Bangladesh",
    "region_en": "Dhaka",
    "city_en": "Madaripur",
    "country": "Бангладеш",
    "region": "Dhaka Division",
    "city": "Madaripur",
    "lat": 23.1648826,
    "lng": 90.1939932
  },
  {
    "country_en": "Bangladesh",
    "region_en": "Dhaka",
    "city_en": "Sherpur",
    "country": "Бангладеш",
    "region": "Dhaka Division",
    "city": "Sherpur",
    "lat": 25.0194045,
    "lng": 90.0137328
  },
  {
    "country_en": "Bangladesh",
    "region_en": "Dhaka",
    "city_en": "Kishorganj",
    "country": "Бангладеш",
    "region": "Дакка",
    "city": "Кишорегандж",
    "lat": 24.4331227,
    "lng": 90.7865655
  },
  {
    "country_en": "Bangladesh",
    "region_en": "Rajshahi",
    "city_en": "Saidpur",
    "country": "Бангладеш",
    "region": "Rangpur Division",
    "city": "Saidpur",
    "lat": 25.7829542,
    "lng": 88.8982666
  },
  {
    "country_en": "Bangladesh",
    "region_en": "Dhaka",
    "city_en": "Azimpur",
    "country": "Бангладеш",
    "region": "Dhaka Division",
    "city": "Lalbagh",
    "lat": 23.7285918,
    "lng": 90.38543
  },
  {
    "country_en": "Bangladesh",
    "region_en": "Dhaka",
    "city_en": "Paltan",
    "country": "Бангладеш",
    "region": "Chittagong Division",
    "city": "Kotwali",
    "lat": 22.3518702,
    "lng": 91.8237924
  },
  {
    "country_en": "Belgium",
    "region_en": "Wallonia",
    "city_en": "Verviers",
    "country": "Бельгия",
    "region": "Валлония",
    "city": "Вервье",
    "lat": 50.5910564,
    "lng": 5.8655951
  },
  {
    "country_en": "Belgium",
    "region_en": "Wallonia",
    "city_en": "Tournai",
    "country": "Бельгия",
    "region": "Валлония",
    "city": "Турнэ",
    "lat": 50.6056475,
    "lng": 3.3879338
  },
  {
    "country_en": "Belgium",
    "region_en": "Flanders",
    "city_en": "Sint-Niklaas",
    "country": "Бельгия",
    "region": "Фламандский регион",
    "city": "Синт-Никлаас",
    "lat": 51.1558839,
    "lng": 4.154441
  },
  {
    "country_en": "Belgium",
    "region_en": "Wallonia",
    "city_en": "Seraing",
    "country": "Бельгия",
    "region": "Валлония",
    "city": "Серен",
    "lat": 50.5838832,
    "lng": 5.4996297
  },
  {
    "country_en": "Belgium",
    "region_en": "Flanders",
    "city_en": "Roeselare",
    "country": "Бельгия",
    "region": "Фламандский регион",
    "city": "Розеларе",
    "lat": 50.9499087,
    "lng": 3.1294471
  },
  {
    "country_en": "Belgium",
    "region_en": "Flanders",
    "city_en": "Ostend",
    "country": "Бельгия",
    "region": "Фламандский регион",
    "city": "Остенде",
    "lat": 51.21543,
    "lng": 2.928656
  },
  {
    "country_en": "Belgium",
    "region_en": "Wallonia",
    "city_en": "Namur",
    "country": "Бельгия",
    "region": "Валлония",
    "city": "Намюр",
    "lat": 50.4673883,
    "lng": 4.8719854
  },
  {
    "country_en": "Belgium",
    "region_en": "Wallonia",
    "city_en": "Mouscron",
    "country": "Бельгия",
    "region": "Валлония",
    "city": "Мускрон",
    "lat": 50.7459126,
    "lng": 3.2192907
  },
  {
    "country_en": "Belgium",
    "region_en": "Wallonia",
    "city_en": "Mons",
    "country": "Бельгия",
    "region": "Валлония",
    "city": "Монс",
    "lat": 50.4542408,
    "lng": 3.956659
  },
  {
    "country_en": "Belgium",
    "region_en": "Flanders",
    "city_en": "Mechelen",
    "country": "Бельгия",
    "region": "Фламандский регион",
    "city": "Мехелен",
    "lat": 51.0258761,
    "lng": 4.4775362
  },
  {
    "country_en": "Belgium",
    "region_en": "Wallonia",
    "city_en": "Liege",
    "country": "Бельгия",
    "region": "Валлония",
    "city": "Льеж",
    "lat": 50.6325574,
    "lng": 5.5796662
  },
  {
    "country_en": "Belgium",
    "region_en": "Flanders",
    "city_en": "Leuven",
    "country": "Бельгия",
    "region": "Фламандский регион",
    "city": "Лювен",
    "lat": 50.8798438,
    "lng": 4.7005176
  },
  {
    "country_en": "Belgium",
    "region_en": "Wallonia",
    "city_en": "La Louviere",
    "country": "Бельгия",
    "region": "Валлония",
    "city": "Ла-Лувьер",
    "lat": 50.4747995,
    "lng": 4.1837388
  },
  {
    "country_en": "Belgium",
    "region_en": "Flanders",
    "city_en": "Kortrijk",
    "country": "Бельгия",
    "region": "Фламандский регион",
    "city": "Кортряйк",
    "lat": 50.8194894,
    "lng": 3.2577076
  },
  {
    "country_en": "Belgium",
    "region_en": "Flanders",
    "city_en": "Hasselt",
    "country": "Бельгия",
    "region": "Фламандский регион",
    "city": "Хасселт",
    "lat": 50.93069,
    "lng": 5.33248
  },
  {
    "country_en": "Belgium",
    "region_en": "Flanders",
    "city_en": "Gent",
    "country": "Бельгия",
    "region": "Фламандский регион",
    "city": "Гент",
    "lat": 51.0543422,
    "lng": 3.7174243
  },
  {
    "country_en": "Belgium",
    "region_en": "Flanders",
    "city_en": "Genk",
    "country": "Бельгия",
    "region": "Фламандский регион",
    "city": "Генк",
    "lat": 50.96613,
    "lng": 1140044
  },
  {
    "country_en": "Belgium",
    "region_en": "Wallonia",
    "city_en": "Charleroi",
    "country": "Бельгия",
    "region": "Валлония",
    "city": "Шарлеруа",
    "lat": 50.4108998,
    "lng": 4.4446709
  },
  {
    "country_en": "Belgium",
    "region_en": "Brussels Capital",
    "city_en": "Brussels",
    "country": "Бельгия",
    "region": "Брюссельский столичный регион",
    "city": "Брюссель",
    "lat": 50.8503396,
    "lng": 4.3517103
  },
  {
    "country_en": "Belgium",
    "region_en": "Flanders",
    "city_en": "Brugge",
    "country": "Бельгия",
    "region": "Фламандский регион",
    "city": "Брюгге",
    "lat": 51.209348,
    "lng": 3.2246995
  },
  {
    "country_en": "Belgium",
    "region_en": "Flanders",
    "city_en": "Antwerpen",
    "country": "Бельгия",
    "region": "Фламандский регион",
    "city": "Антверпен",
    "lat": 51.2194475,
    "lng": 4.4024643
  },
  {
    "country_en": "Belgium",
    "region_en": "Flanders",
    "city_en": "Aalst",
    "country": "Бельгия",
    "region": "Фламандский регион",
    "city": "Алст",
    "lat": 50.9378101,
    "lng": 4.0409517
  },
  {
    "country_en": "Burkina Faso",
    "region_en": "Nord",
    "city_en": "Ouahigouya",
    "country": "Буркина-Фасо",
    "region": "Северная область",
    "city": "Уаигуйа",
    "lat": 13.5668258,
    "lng": -2.4109908
  },
  {
    "country_en": "Burkina Faso",
    "region_en": "Centre",
    "city_en": "Ouagadougou",
    "country": "Буркина-Фасо",
    "region": "Центральная область",
    "city": "Уагадугу",
    "lat": 12.3714277,
    "lng": -1.5196603
  },
  {
    "country_en": "Burkina Faso",
    "region_en": "Centre-Ouest",
    "city_en": "Koudougou",
    "country": "Буркина-Фасо",
    "region": "Западно-Центральная область",
    "city": "Кудугу",
    "lat": 12.2562183,
    "lng": -2.3517526
  },
  {
    "country_en": "Burkina Faso",
    "region_en": "High-Basins",
    "city_en": "Bobo-Dioulasso",
    "country": "Буркина-Фасо",
    "region": "Верхние Бассейны",
    "city": "Бобо-Диуласо",
    "lat": 11.1649219,
    "lng": -4.3051542
  },
  {
    "country_en": "Burkina Faso",
    "region_en": "Cascades",
    "city_en": "Banfora",
    "country": "Буркина-Фасо",
    "region": "Каскады",
    "city": "Банфора",
    "lat": 10.6400163,
    "lng": -4.7588042
  },
  {
    "country_en": "Bulgaria",
    "region_en": "Yambol",
    "city_en": "Yambol",
    "country": "Болгария",
    "region": "Ямбол",
    "city": "Ямбол",
    "lat": 42.4841999,
    "lng": 26.5035023
  },
  {
    "country_en": "Bulgaria",
    "region_en": "Vratsa",
    "city_en": "Vratsa",
    "country": "Болгария",
    "region": "Враца",
    "city": "Враца",
    "lat": 43.2102375,
    "lng": 23.5528803
  },
  {
    "country_en": "Bulgaria",
    "region_en": "Vidin",
    "city_en": "Vidin",
    "country": "Болгария",
    "region": "Видин",
    "city": "Видин",
    "lat": 43.996159,
    "lng": 22.8679302
  },
  {
    "country_en": "Bulgaria",
    "region_en": "Veliko Turnovo",
    "city_en": "Veliko Turnovo",
    "country": "Болгария",
    "region": "Велико-Тырново",
    "city": "Велико-Тырново",
    "lat": 43.0756739,
    "lng": 25.6171514
  },
  {
    "country_en": "Bulgaria",
    "region_en": "Varna",
    "city_en": "Varna",
    "country": "Болгария",
    "region": "Варна",
    "city": "Варна",
    "lat": 43.2140504,
    "lng": 27.9147333
  },
  {
    "country_en": "Bulgaria",
    "region_en": "Dobrich",
    "city_en": "Dobrich",
    "country": "Болгария",
    "region": "Добричская область",
    "city": "Добрич",
    "lat": 43.57259,
    "lng": 27.8272606
  },
  {
    "country_en": "Bulgaria",
    "region_en": "Stara Zagora",
    "city_en": "Stara Zagora",
    "country": "Болгария",
    "region": "Стара Загора",
    "city": "Стара Загора",
    "lat": 42.4257769,
    "lng": 25.6344644
  },
  {
    "country_en": "Bulgaria",
    "region_en": "Sofia-Capital",
    "city_en": "Sofia",
    "country": "Болгария",
    "region": "София-град",
    "city": "София",
    "lat": 42.6977082,
    "lng": 23.3218675
  },
  {
    "country_en": "Bulgaria",
    "region_en": "Sliven",
    "city_en": "Sliven",
    "country": "Болгария",
    "region": "Сливен",
    "city": "Сливен",
    "lat": 42.6816536,
    "lng": 26.3228685
  },
  {
    "country_en": "Bulgaria",
    "region_en": "Shumen",
    "city_en": "Shumen",
    "country": "Болгария",
    "region": "Шуменская область",
    "city": "Шумен",
    "lat": 43.2712398,
    "lng": 26.9361286
  },
  {
    "country_en": "Bulgaria",
    "region_en": "Ruse",
    "city_en": "Ruse",
    "country": "Болгария",
    "region": "Руза",
    "city": "Русе",
    "lat": 43.8355713,
    "lng": 25.9656554
  },
  {
    "country_en": "Bulgaria",
    "region_en": "Plovdiv",
    "city_en": "Plovdiv",
    "country": "Болгария",
    "region": "Пловдив",
    "city": "Пловдив",
    "lat": 42.1354079,
    "lng": 24.7452904
  },
  {
    "country_en": "Bulgaria",
    "region_en": "Pleven",
    "city_en": "Pleven",
    "country": "Болгария",
    "region": "Плевен",
    "city": "Плевен",
    "lat": 43.4170423,
    "lng": 24.6066847
  },
  {
    "country_en": "Bulgaria",
    "region_en": "Pernik",
    "city_en": "Pernik",
    "country": "Болгария",
    "region": "Перник",
    "city": "Перник",
    "lat": 42.6051862,
    "lng": 23.0378368
  },
  {
    "country_en": "Bulgaria",
    "region_en": "Pazardzhik",
    "city_en": "Pazardzhik",
    "country": "Болгария",
    "region": "Пазарджик",
    "city": "Пазарджик",
    "lat": 42.1927654,
    "lng": 24.3335662
  },
  {
    "country_en": "Bulgaria",
    "region_en": "Kurdzhali",
    "city_en": "Kurdzhali",
    "country": "Болгария",
    "region": "Кырджали",
    "city": "Кырджали",
    "lat": 41.6338439,
    "lng": 25.3777119
  },
  {
    "country_en": "Bulgaria",
    "region_en": "Khaskovo",
    "city_en": "Haskovo",
    "country": "Болгария",
    "region": "Хасково",
    "city": "Хасково",
    "lat": 41.9344366,
    "lng": 25.5554462
  },
  {
    "country_en": "Bulgaria",
    "region_en": "Stara Zagora",
    "city_en": "Kazanluk",
    "country": "Болгария",
    "region": "Стара Загора",
    "city": "Казанлык",
    "lat": 42.6194408,
    "lng": 25.3929576
  },
  {
    "country_en": "Bulgaria",
    "region_en": "Gabrovo",
    "city_en": "Gabrovo",
    "country": "Болгария",
    "region": "Габрово",
    "city": "Габрово",
    "lat": 42.8742212,
    "lng": 25.3186837
  },
  {
    "country_en": "Bulgaria",
    "region_en": "Burgas",
    "city_en": "Burgas",
    "country": "Болгария",
    "region": "Бургас",
    "city": "Бургас",
    "lat": 42.5047926,
    "lng": 27.4626361
  },
  {
    "country_en": "Bulgaria",
    "region_en": "Blagoevgrad",
    "city_en": "Blagoevgrad",
    "country": "Болгария",
    "region": "Благоевград",
    "city": "Благоевград",
    "lat": 42.0208569,
    "lng": 23.0943385
  },
  {
    "country_en": "Bulgaria",
    "region_en": "Plovdiv",
    "city_en": "Asenovgrad",
    "country": "Болгария",
    "region": "Пловдив",
    "city": "Асеновград",
    "lat": 42.0133722,
    "lng": 24.8784393
  },
  {
    "country_en": "Bahrain",
    "region_en": "Central Governorate",
    "city_en": "Madinat Hamad",
    "country": "Бахрейн",
    "region": "Northern Governorate",
    "city": "Madinat Hamad?",
    "lat": 26.1256441,
    "lng": 50.4980362
  },
  {
    "country_en": "Bahrain",
    "region_en": "Southern Governorate",
    "city_en": "Dar Kulayb",
    "country": "Бахрейн",
    "region": "Northern Governorate",
    "city": "Dar Kulaib",
    "lat": 26.0696179,
    "lng": 50.5006231
  },
  {
    "country_en": "Bahrain",
    "region_en": "Muharraq",
    "city_en": "Al Muharraq",
    "country": "Бахрейн",
    "region": "Muharraq Governorate",
    "city": "Мухаррак",
    "lat": 26.2650742,
    "lng": 50.6223267
  },
  {
    "country_en": "Bahrain",
    "region_en": "Manama",
    "city_en": "Manama",
    "country": "Бахрейн",
    "region": "Кэпитал Говернорейт",
    "city": "Манама",
    "lat": 26.2285161,
    "lng": 50.5860497
  },
  {
    "country_en": "Bahrain",
    "region_en": "Southern Governorate",
    "city_en": "Ar Rifa'",
    "country": "Бахрейн",
    "region": "Southern Governorate",
    "city": "Риффа",
    "lat": 26.1226062,
    "lng": 50.534262
  },
  {
    "country_en": "Burundi",
    "region_en": "Bujumbura Mairie",
    "city_en": "Bujumbura",
    "country": "Бурунди",
    "region": "Бюжумбюра Мэри",
    "city": "Бужумбура",
    "lat": -3.361378,
    "lng": 29.3598782
  },
  {
    "country_en": "Burundi",
    "region_en": "Muyinga",
    "city_en": "Muyinga",
    "country": "Бурунди",
    "region": "Муйинга",
    "city": "Муйинга",
    "lat": -2.8409385,
    "lng": 30.3464333
  },
  {
    "country_en": "Benin",
    "region_en": "Collines",
    "city_en": "Save",
    "country": "Бенин",
    "region": "Коллинз",
    "city": "Саве",
    "lat": 8.0335995,
    "lng": 2.4851463
  },
  {
    "country_en": "Benin",
    "region_en": "Queme",
    "city_en": "Porto-Novo",
    "country": "Бенин",
    "region": "Уэме",
    "city": "Порто-Ново",
    "lat": 6.4968574,
    "lng": 2.6288523
  },
  {
    "country_en": "Benin",
    "region_en": "Borgou",
    "city_en": "Parakou",
    "country": "Бенин",
    "region": "Боргу",
    "city": "Параку",
    "lat": 9.3466822,
    "lng": 2.6090043
  },
  {
    "country_en": "Benin",
    "region_en": "Atlantique",
    "city_en": "Ouidah",
    "country": "Бенин",
    "region": "Атлантический",
    "city": "Уида",
    "lat": 6.3716474,
    "lng": 2.0763253
  },
  {
    "country_en": "Benin",
    "region_en": "Borgou",
    "city_en": "Nikki",
    "country": "Бенин",
    "region": "Боргу",
    "city": "Никки",
    "lat": 9.936763,
    "lng": 3.2131232
  },
  {
    "country_en": "Benin",
    "region_en": "Atakora",
    "city_en": "Natitingou",
    "country": "Бенин",
    "region": "Атакора",
    "city": "Натитингу",
    "lat": 10.2963526,
    "lng": 1.3806902
  },
  {
    "country_en": "Benin",
    "region_en": "Mono",
    "city_en": "Lokossa",
    "country": "Бенин",
    "region": "Моно",
    "city": "Локоса",
    "lat": 6.6448093,
    "lng": 1.7198215
  },
  {
    "country_en": "Benin",
    "region_en": "Alibori",
    "city_en": "Kandi",
    "country": "Бенин",
    "region": "Алибори",
    "city": "Канди",
    "lat": 11.1305191,
    "lng": 2.9325785
  },
  {
    "country_en": "Benin",
    "region_en": "Donga",
    "city_en": "Djougou",
    "country": "Бенин",
    "region": "Донга",
    "city": "Джугу",
    "lat": 9.7080916,
    "lng": 1.6663523
  },
  {
    "country_en": "Benin",
    "region_en": "Zou",
    "city_en": "Bohicon",
    "country": "Бенин",
    "region": "Зу",
    "city": "Боикон",
    "lat": 7.1797684,
    "lng": 2.0714223
  },
  {
    "country_en": "Benin",
    "region_en": "Atlantique",
    "city_en": "Abomey-Calavi",
    "country": "Бенин",
    "region": "Атлантический",
    "city": "Абоме Калави",
    "lat": 6.4503024,
    "lng": 2.3468195
  },
  {
    "country_en": "Benin",
    "region_en": "Zou",
    "city_en": "Abomey",
    "country": "Бенин",
    "region": "Зу",
    "city": "Абоме",
    "lat": 7.1854773,
    "lng": 1.9979411
  },
  {
    "country_en": "Brunei",
    "region_en": "Brunei and Muara",
    "city_en": "Bandar Seri Begawan",
    "country": "Бруней-Даруссалам",
    "region": "Бруней-Муара",
    "city": "Бандар-Сери-Бегаван",
    "lat": 4.9030522,
    "lng": 114.939821
  },
  {
    "country_en": "Bolivia",
    "region_en": "Tarija",
    "city_en": "Yacuiba",
    "country": "Боливия",
    "region": "Тариха",
    "city": "Якуиба",
    "lat": -22.0028157,
    "lng": -63.6691522
  },
  {
    "country_en": "Bolivia",
    "region_en": "El Beni",
    "city_en": "Trinidad",
    "country": "Боливия",
    "region": "Бени",
    "city": "Тринидад",
    "lat": -14.8258317,
    "lng": -64.9000247
  },
  {
    "country_en": "Bolivia",
    "region_en": "Tarija",
    "city_en": "Tarija",
    "country": "Боливия",
    "region": "Тариха",
    "city": "Тариха",
    "lat": -21.5213825,
    "lng": -64.7280952
  },
  {
    "country_en": "Bolivia",
    "region_en": "Chuquisaca",
    "city_en": "Sucre",
    "country": "Боливия",
    "region": "Чукисака",
    "city": "Сукре",
    "lat": -19.0195852,
    "lng": -65.2619615
  },
  {
    "country_en": "Bolivia",
    "region_en": "Santa Cruz",
    "city_en": "Santa Cruz de la Sierra",
    "country": "Боливия",
    "region": "Санта-Круз",
    "city": "Санта-Круз",
    "lat": -17.8145819,
    "lng": -63.1560853
  },
  {
    "country_en": "Bolivia",
    "region_en": "El Beni",
    "city_en": "Riberalta",
    "country": "Боливия",
    "region": "Бени",
    "city": "Риберальта",
    "lat": -11.0073376,
    "lng": -66.058249
  },
  {
    "country_en": "Bolivia",
    "region_en": "Potosi",
    "city_en": "Potosi",
    "country": "Боливия",
    "region": "Потоси",
    "city": "Потоси",
    "lat": -19.5722805,
    "lng": -65.7550063
  },
  {
    "country_en": "Bolivia",
    "region_en": "Oruro",
    "city_en": "Oruro",
    "country": "Боливия",
    "region": "Оруро",
    "city": "Оруро",
    "lat": -17.9646772,
    "lng": -67.1060353
  },
  {
    "country_en": "Bolivia",
    "region_en": "Santa Cruz",
    "city_en": "Montero",
    "country": "Боливия",
    "region": "Санта-Круз",
    "city": "Монтеро",
    "lat": -17.3191113,
    "lng": -63.2621415
  },
  {
    "country_en": "Bolivia",
    "region_en": "Cochabamba",
    "city_en": "Cochabamba",
    "country": "Боливия",
    "region": "Кочабамба",
    "city": "Кочабамба",
    "lat": -17.4139766,
    "lng": -66.1653224
  },
  {
    "country_en": "Brazil",
    "region_en": "Pernambuco",
    "city_en": "Vitoria de Santo Antao",
    "country": "Бразилия",
    "region": "Pernambuco",
    "city": "Vitoria de Santo Antao",
    "lat": -8.1286072,
    "lng": -35.2979382
  },
  {
    "country_en": "Brazil",
    "region_en": "Para",
    "city_en": "Tucurui",
    "country": "Бразилия",
    "region": "Para",
    "city": "Tucurui",
    "lat": -3.7660765,
    "lng": -49.6777695
  },
  {
    "country_en": "Brazil",
    "region_en": "Maranhao",
    "city_en": "Timon",
    "country": "Бразилия",
    "region": "Maranhao",
    "city": "Timon",
    "lat": -5.0980798,
    "lng": -42.8333011
  },
  {
    "country_en": "Brazil",
    "region_en": "Piaui",
    "city_en": "Teresina",
    "country": "Бразилия",
    "region": "Пиауи",
    "city": "Терезина",
    "lat": -5.0920108,
    "lng": -42.8037597
  },
  {
    "country_en": "Brazil",
    "region_en": "Ceara",
    "city_en": "Sobral",
    "country": "Бразилия",
    "region": "Ceara",
    "city": "Sobral",
    "lat": -3.6895112,
    "lng": -40.3485697
  },
  {
    "country_en": "Brazil",
    "region_en": "Pernambuco",
    "city_en": "Serra Talhada",
    "country": "Бразилия",
    "region": "Pernambuco",
    "city": "Serra Talhada",
    "lat": -7.9821907,
    "lng": -38.2893787
  },
  {
    "country_en": "Brazil",
    "region_en": "Maranhao",
    "city_en": "Sao Luis",
    "country": "Бразилия",
    "region": "Maranhao",
    "city": "Sao Luis",
    "lat": -2.5391099,
    "lng": -44.2829046
  },
  {
    "country_en": "Brazil",
    "region_en": "Pernambuco",
    "city_en": "Sao Lourenco da Mata",
    "country": "Бразилия",
    "region": "Pernambuco",
    "city": "Sao Lourenco da Mata",
    "lat": -8.0075658,
    "lng": -35.0221895
  },
  {
    "country_en": "Brazil",
    "region_en": "Paraiba",
    "city_en": "Santa Rita",
    "country": "Бразилия",
    "region": "Paraiba",
    "city": "Santa Rita",
    "lat": -7.135868,
    "lng": -34.9662353
  },
  {
    "country_en": "Brazil",
    "region_en": "Para",
    "city_en": "Santarem",
    "country": "Бразилия",
    "region": "Para",
    "city": "Santarem",
    "lat": -2.4506291,
    "lng": -54.7009228
  },
  {
    "country_en": "Brazil",
    "region_en": "Maranhao",
    "city_en": "Santa Ines",
    "country": "Бразилия",
    "region": "Maranhao",
    "city": "Santa Ines",
    "lat": -3.6644286,
    "lng": -45.3839708
  },
  {
    "country_en": "Brazil",
    "region_en": "Pernambuco",
    "city_en": "Santa Cruz do Capibaribe",
    "country": "Бразилия",
    "region": "Pernambuco",
    "city": "Santa Cruz do Capibaribe",
    "lat": -7.9484331,
    "lng": -36.2064182
  },
  {
    "country_en": "Brazil",
    "region_en": "Alagoas",
    "city_en": "Rio Largo",
    "country": "Бразилия",
    "region": "Alagoas",
    "city": "Rio Largo",
    "lat": -9.4782552,
    "lng": -35.8397592
  },
  {
    "country_en": "Brazil",
    "region_en": "Pernambuco",
    "city_en": "Recife",
    "country": "Бразилия",
    "region": "Пернамбуку",
    "city": "Ресифи",
    "lat": -8.0578381,
    "lng": -34.8828969
  },
  {
    "country_en": "Brazil",
    "region_en": "Amapa",
    "city_en": "Santana",
    "country": "Бразилия",
    "region": "Amapa",
    "city": "Santana",
    "lat": -0.0457826,
    "lng": -51.1733673
  },
  {
    "country_en": "Brazil",
    "region_en": "Piaui",
    "city_en": "Picos",
    "country": "Бразилия",
    "region": "State of Piaui",
    "city": "Picos",
    "lat": -7.0776163,
    "lng": -41.4673741
  },
  {
    "country_en": "Brazil",
    "region_en": "Pernambuco",
    "city_en": "Petrolina",
    "country": "Бразилия",
    "region": "Pernambuco",
    "city": "Petrolina",
    "lat": -9.389083,
    "lng": -40.5030961
  },
  {
    "country_en": "Brazil",
    "region_en": "Bahia",
    "city_en": "Paulo Afonso",
    "country": "Бразилия",
    "region": "Bahia",
    "city": "Paulo Afonso",
    "lat": -9.4061251,
    "lng": -38.2163717
  },
  {
    "country_en": "Brazil",
    "region_en": "Pernambuco",
    "city_en": "Paulista",
    "country": "Бразилия",
    "region": "Pernambuco",
    "city": "Paulista",
    "lat": -7.934422,
    "lng": -34.8687212
  },
  {
    "country_en": "Brazil",
    "region_en": "Paraiba",
    "city_en": "Patos",
    "country": "Бразилия",
    "region": "Paraiba",
    "city": "Patos",
    "lat": -7.0178331,
    "lng": -37.275037
  },
  {
    "country_en": "Brazil",
    "region_en": "Rio Grande do Norte",
    "city_en": "Parnamirim",
    "country": "Бразилия",
    "region": "Rio Grande do Norte",
    "city": "Parnamirim",
    "lat": -5.9115545,
    "lng": -35.2713164
  },
  {
    "country_en": "Brazil",
    "region_en": "Piaui",
    "city_en": "Parnaiba",
    "country": "Бразилия",
    "region": "Piaui",
    "city": "Parnaiba",
    "lat": -2.9055447,
    "lng": -41.7733626
  },
  {
    "country_en": "Brazil",
    "region_en": "Amazonas",
    "city_en": "Parintins",
    "country": "Бразилия",
    "region": "Amazonas",
    "city": "Parintins",
    "lat": -2.6377762,
    "lng": -56.7295262
  },
  {
    "country_en": "Brazil",
    "region_en": "Para",
    "city_en": "Paragominas",
    "country": "Бразилия",
    "region": "Para",
    "city": "Paragominas",
    "lat": -3.0024862,
    "lng": -47.3531078
  },
  {
    "country_en": "Brazil",
    "region_en": "Ceara",
    "city_en": "Pacatuba",
    "country": "Бразилия",
    "region": "Ceara",
    "city": "Pacatuba",
    "lat": -3.9295278,
    "lng": -38.6057798
  },
  {
    "country_en": "Brazil",
    "region_en": "Pernambuco",
    "city_en": "Olinda",
    "country": "Бразилия",
    "region": "Pernambuco",
    "city": "Olinda",
    "lat": -7.9907141,
    "lng": -34.8416216
  },
  {
    "country_en": "Brazil",
    "region_en": "Rio Grande do Norte",
    "city_en": "Natal",
    "country": "Бразилия",
    "region": "Риу-Гранди-ду-Норти",
    "city": "Натал",
    "lat": -5.7792569,
    "lng": -35.200916
  },
  {
    "country_en": "Brazil",
    "region_en": "Rio Grande do Norte",
    "city_en": "Mossoro",
    "country": "Бразилия",
    "region": "Rio Grande do Norte",
    "city": "Mossoro",
    "lat": -5.1841285,
    "lng": -37.3477805
  },
  {
    "country_en": "Brazil",
    "region_en": "Alagoas",
    "city_en": "Marechal Deodoro",
    "country": "Бразилия",
    "region": "Alagoas",
    "city": "Marechal Deodoro",
    "lat": -9.710143,
    "lng": -35.897056
  },
  {
    "country_en": "Brazil",
    "region_en": "Ceara",
    "city_en": "Maracanau",
    "country": "Бразилия",
    "region": "Ceara",
    "city": "Maracanau",
    "lat": -3.8674127,
    "lng": -38.6261113
  },
  {
    "country_en": "Brazil",
    "region_en": "Para",
    "city_en": "Maraba",
    "country": "Бразилия",
    "region": "Para",
    "city": "Maraba",
    "lat": -5.3811357,
    "lng": -49.1331024
  },
  {
    "country_en": "Brazil",
    "region_en": "Alagoas",
    "city_en": "Maceio",
    "country": "Бразилия",
    "region": "Алагоас",
    "city": "Масейо",
    "lat": -9.6498487,
    "lng": -35.7089492
  },
  {
    "country_en": "Brazil",
    "region_en": "Amapa",
    "city_en": "Macapa",
    "country": "Бразилия",
    "region": "Amapa",
    "city": "Macapa",
    "lat": 0.0355735,
    "lng": -51.070535
  },
  {
    "country_en": "Brazil",
    "region_en": "Ceara",
    "city_en": "Juazeiro do Norte",
    "country": "Бразилия",
    "region": "Ceara",
    "city": "Juazeiro do Norte",
    "lat": -7.2290365,
    "lng": -39.3124461
  },
  {
    "country_en": "Brazil",
    "region_en": "Paraiba",
    "city_en": "Joao Pessoa",
    "country": "Бразилия",
    "region": "Paraiba",
    "city": "Joao Pessoa",
    "lat": -7.1194958,
    "lng": -34.8450118
  },
  {
    "country_en": "Brazil",
    "region_en": "Amazonas",
    "city_en": "Itacoatiara",
    "country": "Бразилия",
    "region": "Amazonas",
    "city": "Itacoatiara",
    "lat": -3.135021,
    "lng": -58.438544
  },
  {
    "country_en": "Brazil",
    "region_en": "Ceara",
    "city_en": "Itapipoca",
    "country": "Бразилия",
    "region": "Ceara",
    "city": "Itapipoca",
    "lat": -3.499706,
    "lng": -39.5839241
  },
  {
    "country_en": "Brazil",
    "region_en": "Para",
    "city_en": "Itaituba",
    "country": "Бразилия",
    "region": "Para",
    "city": "Itaituba",
    "lat": -4.2670701,
    "lng": -55.9931173
  },
  {
    "country_en": "Brazil",
    "region_en": "Pernambuco",
    "city_en": "Ipojuca",
    "country": "Бразилия",
    "region": "Pernambuco",
    "city": "Ipojuca",
    "lat": -8.398109,
    "lng": -35.0609851
  },
  {
    "country_en": "Brazil",
    "region_en": "Maranhao",
    "city_en": "Imperatriz",
    "country": "Бразилия",
    "region": "Maranhao",
    "city": "Imperatriz",
    "lat": -5.5205508,
    "lng": -47.4718408
  },
  {
    "country_en": "Brazil",
    "region_en": "Ceara",
    "city_en": "Iguatu",
    "country": "Бразилия",
    "region": "Ceara",
    "city": "Iguatu",
    "lat": -6.3587958,
    "lng": -39.298059
  },
  {
    "country_en": "Brazil",
    "region_en": "Pernambuco",
    "city_en": "Igarassu",
    "country": "Бразилия",
    "region": "Pernambuco",
    "city": "Igarassu",
    "lat": -7.8292242,
    "lng": -34.9016204
  },
  {
    "country_en": "Brazil",
    "region_en": "Ceara",
    "city_en": "Horizonte",
    "country": "Бразилия",
    "region": "Ceara",
    "city": "Horizonte",
    "lat": -4.1032838,
    "lng": -38.4955043
  },
  {
    "country_en": "Brazil",
    "region_en": "Pernambuco",
    "city_en": "Gravata",
    "country": "Бразилия",
    "region": "Pernambuco",
    "city": "Gravata",
    "lat": -8.2116007,
    "lng": -35.5677787
  },
  {
    "country_en": "Brazil",
    "region_en": "Pernambuco",
    "city_en": "Garanhuns",
    "country": "Бразилия",
    "region": "Pernambuco",
    "city": "Garanhuns",
    "lat": -8.8828551,
    "lng": -36.4968966
  },
  {
    "country_en": "Brazil",
    "region_en": "Ceara",
    "city_en": "Fortaleza",
    "country": "Бразилия",
    "region": "Сеара",
    "city": "Форталеза",
    "lat": -3.7318616,
    "lng": -38.5266704
  },
  {
    "country_en": "Brazil",
    "region_en": "Ceara",
    "city_en": "Crato",
    "country": "Бразилия",
    "region": "Ceara",
    "city": "Crato",
    "lat": -7.2299572,
    "lng": -39.4122984
  },
  {
    "country_en": "Brazil",
    "region_en": "Ceara",
    "city_en": "Crateus",
    "country": "Бразилия",
    "region": "Ceara",
    "city": "Crateus",
    "lat": -5.178204,
    "lng": -40.6695522
  },
  {
    "country_en": "Brazil",
    "region_en": "Maranhao",
    "city_en": "Codo",
    "country": "Бразилия",
    "region": "Maranhao",
    "city": "Codo",
    "lat": -4.4605557,
    "lng": -43.88945
  },
  {
    "country_en": "Brazil",
    "region_en": "Maranhao",
    "city_en": "Caxias",
    "country": "Бразилия",
    "region": "Maranhao",
    "city": "Caxias",
    "lat": -4.8654387,
    "lng": -43.3621342
  },
  {
    "country_en": "Brazil",
    "region_en": "Ceara",
    "city_en": "Caucaia",
    "country": "Бразилия",
    "region": "Ceara",
    "city": "Caucaia",
    "lat": -3.7281443,
    "lng": -38.6619214
  },
  {
    "country_en": "Brazil",
    "region_en": "Para",
    "city_en": "Castanhal",
    "country": "Бразилия",
    "region": "Para",
    "city": "Castanhal",
    "lat": -1.2983288,
    "lng": -47.9171616
  },
  {
    "country_en": "Brazil",
    "region_en": "Ceara",
    "city_en": "Cascavel",
    "country": "Бразилия",
    "region": "Ceara",
    "city": "Cascavel",
    "lat": -4.13306,
    "lng": -38.24194
  },
  {
    "country_en": "Brazil",
    "region_en": "Pernambuco",
    "city_en": "Caruaru",
    "country": "Бразилия",
    "region": "Pernambuco",
    "city": "Caruaru",
    "lat": -8.2849639,
    "lng": -35.9701874
  },
  {
    "country_en": "Brazil",
    "region_en": "Pernambuco",
    "city_en": "Carpina",
    "country": "Бразилия",
    "region": "Pernambuco",
    "city": "Carpina",
    "lat": -7.8460741,
    "lng": -35.2517146
  },
  {
    "country_en": "Brazil",
    "region_en": "Paraiba",
    "city_en": "Campina Grande",
    "country": "Бразилия",
    "region": "Paraiba",
    "city": "Campina Grande",
    "lat": -7.2290752,
    "lng": -35.8808337
  },
  {
    "country_en": "Brazil",
    "region_en": "Rio Grande do Norte",
    "city_en": "Caico",
    "country": "Бразилия",
    "region": "Rio Grande do Norte",
    "city": "Caico",
    "lat": -6.4599655,
    "lng": -37.0936867
  },
  {
    "country_en": "Brazil",
    "region_en": "Pernambuco",
    "city_en": "Cabo",
    "country": "Бразилия",
    "region": "Pernambuco",
    "city": "Centro",
    "lat": -8.2865053,
    "lng": -35.0365913
  },
  {
    "country_en": "Brazil",
    "region_en": "Paraiba",
    "city_en": "Cabedelo",
    "country": "Бразилия",
    "region": "Paraiba",
    "city": "Cabedelo",
    "lat": -6.9877215,
    "lng": -34.8287221
  },
  {
    "country_en": "Brazil",
    "region_en": "Para",
    "city_en": "Braganca",
    "country": "Бразилия",
    "region": "Para",
    "city": "Braganca",
    "lat": -1.0616193,
    "lng": -46.7830109
  },
  {
    "country_en": "Brazil",
    "region_en": "Pernambuco",
    "city_en": "Bezerros",
    "country": "Бразилия",
    "region": "Pernambuco",
    "city": "Bezerros",
    "lat": -8.2414964,
    "lng": -35.7570657
  },
  {
    "country_en": "Brazil",
    "region_en": "Para",
    "city_en": "Belem",
    "country": "Бразилия",
    "region": "Пара",
    "city": "Белен",
    "lat": -1.4557549,
    "lng": -48.4901799
  },
  {
    "country_en": "Brazil",
    "region_en": "Paraiba",
    "city_en": "Bayeux",
    "country": "Бразилия",
    "region": "Paraiba",
    "city": "Bayeux",
    "lat": -7.1315529,
    "lng": -34.9322771
  },
  {
    "country_en": "Brazil",
    "region_en": "Maranhao",
    "city_en": "Balsas",
    "country": "Бразилия",
    "region": "Maranhao",
    "city": "Balsas",
    "lat": -7.5330309,
    "lng": -46.035885
  },
  {
    "country_en": "Brazil",
    "region_en": "Maranhao",
    "city_en": "Bacabal",
    "country": "Бразилия",
    "region": "Maranhao",
    "city": "Bacabal",
    "lat": -4.2221443,
    "lng": -44.7855844
  },
  {
    "country_en": "Brazil",
    "region_en": "Pernambuco",
    "city_en": "Arcoverde",
    "country": "Бразилия",
    "region": "Pernambuco",
    "city": "Arcoverde",
    "lat": -8.4176445,
    "lng": -37.0585205
  },
  {
    "country_en": "Brazil",
    "region_en": "Alagoas",
    "city_en": "Arapiraca",
    "country": "Бразилия",
    "region": "Alagoas",
    "city": "Arapiraca",
    "lat": -9.7555596,
    "lng": -36.6639697
  },
  {
    "country_en": "Brazil",
    "region_en": "Tocantins",
    "city_en": "Araguaina",
    "country": "Бразилия",
    "region": "Tocantins",
    "city": "Araguaina",
    "lat": -7.1927733,
    "lng": -48.204827
  },
  {
    "country_en": "Brazil",
    "region_en": "Ceara",
    "city_en": "Aquiraz",
    "country": "Бразилия",
    "region": "Ceara",
    "city": "Aquiraz",
    "lat": -3.8996737,
    "lng": -38.389906
  },
  {
    "country_en": "Brazil",
    "region_en": "Para",
    "city_en": "Ananindeua",
    "country": "Бразилия",
    "region": "Пара",
    "city": "Ананиндеуа",
    "lat": -1.3642722,
    "lng": -48.374721
  },
  {
    "country_en": "Brazil",
    "region_en": "Para",
    "city_en": "Altamira",
    "country": "Бразилия",
    "region": "Para",
    "city": "Altamira",
    "lat": -3.1986664,
    "lng": -52.2104006
  },
  {
    "country_en": "Brazil",
    "region_en": "Pernambuco",
    "city_en": "Abreu e Lima",
    "country": "Бразилия",
    "region": "Pernambuco",
    "city": "Abreu e Lima",
    "lat": -7.9011338,
    "lng": -34.8987034
  },
  {
    "country_en": "Brazil",
    "region_en": "Para",
    "city_en": "Abaetetuba",
    "country": "Бразилия",
    "region": "Para",
    "city": "Abaetetuba",
    "lat": -1.7221887,
    "lng": -48.8792698
  },
  {
    "country_en": "Brazil",
    "region_en": "Sao Paulo",
    "city_en": "Votuporanga",
    "country": "Бразилия",
    "region": "Sao Paulo",
    "city": "Votuporanga",
    "lat": -20.4173291,
    "lng": -49.9702752
  },
  {
    "country_en": "Brazil",
    "region_en": "Sao Paulo",
    "city_en": "Votorantim",
    "country": "Бразилия",
    "region": "Sao Paulo",
    "city": "Votorantim",
    "lat": -23.540286,
    "lng": -47.4445978
  },
  {
    "country_en": "Brazil",
    "region_en": "Rio de Janeiro",
    "city_en": "Volta Redonda",
    "country": "Бразилия",
    "region": "Rio de Janeiro",
    "city": "Volta Redonda",
    "lat": -22.5077674,
    "lng": -44.0946129
  },
  {
    "country_en": "Brazil",
    "region_en": "Bahia",
    "city_en": "Vitoria da Conquista",
    "country": "Бразилия",
    "region": "Bahia",
    "city": "Vitoria da Conquista",
    "lat": -14.8619237,
    "lng": -40.8445346
  },
  {
    "country_en": "Brazil",
    "region_en": "Espirito Santo",
    "city_en": "Vitoria",
    "country": "Бразилия",
    "region": "Эспириту-Санту",
    "city": "Витория",
    "lat": -20.2976178,
    "lng": -40.2957768
  },
  {
    "country_en": "Brazil",
    "region_en": "Sao Paulo",
    "city_en": "Vinhedo",
    "country": "Бразилия",
    "region": "Sao Paulo",
    "city": "Vinhedo",
    "lat": -23.0306726,
    "lng": -46.9837599
  },
  {
    "country_en": "Brazil",
    "region_en": "Espirito Santo",
    "city_en": "Vila Velha",
    "country": "Бразилия",
    "region": "Espirito Santo",
    "city": "Vila Velha",
    "lat": -20.3477821,
    "lng": -40.2949528
  },
  {
    "country_en": "Brazil",
    "region_en": "Minas Gerais",
    "city_en": "Vicosa",
    "country": "Бразилия",
    "region": "Minas Gerais",
    "city": "Vicosa",
    "lat": -20.7548659,
    "lng": -42.8785788
  },
  {
    "country_en": "Brazil",
    "region_en": "Espirito Santo",
    "city_en": "Viana",
    "country": "Бразилия",
    "region": "Espirito Santo",
    "city": "Viana",
    "lat": -20.3646691,
    "lng": -40.4274631
  },
  {
    "country_en": "Brazil",
    "region_en": "Rio Grande do Sul",
    "city_en": "Viamao",
    "country": "Бразилия",
    "region": "Rio Grande do Sul",
    "city": "Viamao",
    "lat": -30.0824005,
    "lng": -51.0199456
  },
  {
    "country_en": "Brazil",
    "region_en": "Minas Gerais",
    "city_en": "Vespasiano",
    "country": "Бразилия",
    "region": "Minas Gerais",
    "city": "Vespasiano",
    "lat": -19.688806,
    "lng": -43.9243123
  },
  {
    "country_en": "Brazil",
    "region_en": "Sao Paulo",
    "city_en": "Varzea Paulista",
    "country": "Бразилия",
    "region": "Sao Paulo",
    "city": "Varzea Paulista",
    "lat": -23.2140719,
    "lng": -46.8238911
  },
  {
    "country_en": "Brazil",
    "region_en": "Mato Grosso",
    "city_en": "Varzea Grande",
    "country": "Бразилия",
    "region": "Mato Grosso",
    "city": "Varzea Grande",
    "lat": -15.646248,
    "lng": -56.1327131
  },
  {
    "country_en": "Brazil",
    "region_en": "Minas Gerais",
    "city_en": "Varginha",
    "country": "Бразилия",
    "region": "Minas Gerais",
    "city": "Varginha",
    "lat": -21.5560669,
    "lng": -45.4368543
  },
  {
    "country_en": "Brazil",
    "region_en": "Sao Paulo",
    "city_en": "Valinhos",
    "country": "Бразилия",
    "region": "Sao Paulo",
    "city": "Valinhos",
    "lat": -22.9702933,
    "lng": -46.9978148
  },
  {
    "country_en": "Brazil",
    "region_en": "Rio de Janeiro",
    "city_en": "Valenca",
    "country": "Бразилия",
    "region": "Rio de Janeiro",
    "city": "Valenca",
    "lat": -22.2459149,
    "lng": -43.7068952
  },
  {
    "country_en": "Brazil",
    "region_en": "Bahia",
    "city_en": "Valenca",
    "country": "Бразилия",
    "region": "Bahia",
    "city": "Valenca",
    "lat": -13.370017,
    "lng": -39.0720559
  },
  {
    "country_en": "Brazil",
    "region_en": "Rio Grande do Sul",
    "city_en": "Vacaria",
    "country": "Бразилия",
    "region": "Rio Grande do Sul",
    "city": "Vacaria",
    "lat": -28.5071196,
    "lng": -50.941176
  },
  {
    "country_en": "Brazil",
    "region_en": "Rio Grande do Sul",
    "city_en": "Uruguaiana",
    "country": "Бразилия",
    "region": "Rio Grande do Sul",
    "city": "Uruguaiana",
    "lat": -29.7619121,
    "lng": -57.0858428
  },
  {
    "country_en": "Brazil",
    "region_en": "Minas Gerais",
    "city_en": "Unai",
    "country": "Бразилия",
    "region": "Minas Gerais",
    "city": "Unai",
    "lat": -16.3596675,
    "lng": -46.902586
  },
  {
    "country_en": "Brazil",
    "region_en": "Parana",
    "city_en": "Umuarama",
    "country": "Бразилия",
    "region": "Parana",
    "city": "Umuarama",
    "lat": -23.7661064,
    "lng": -53.3206105
  },
  {
    "country_en": "Brazil",
    "region_en": "Minas Gerais",
    "city_en": "Uberlandia",
    "country": "Бразилия",
    "region": "Minas Gerais",
    "city": "Uberlandia",
    "lat": -18.9146078,
    "lng": -48.2753801
  },
  {
    "country_en": "Brazil",
    "region_en": "Minas Gerais",
    "city_en": "Uberaba",
    "country": "Бразилия",
    "region": "Minas Gerais",
    "city": "Uberaba",
    "lat": -19.7473668,
    "lng": -47.939154
  },
  {
    "country_en": "Brazil",
    "region_en": "Sao Paulo",
    "city_en": "Ubatuba",
    "country": "Бразилия",
    "region": "Sao Paulo",
    "city": "Ubatuba",
    "lat": -23.4336578,
    "lng": -45.0838481
  },
  {
    "country_en": "Brazil",
    "region_en": "Minas Gerais",
    "city_en": "Uba",
    "country": "Бразилия",
    "region": "Minas Gerais",
    "city": "Uba",
    "lat": -21.120123,
    "lng": -42.9426188
  },
  {
    "country_en": "Brazil",
    "region_en": "Sao Paulo",
    "city_en": "Tupa",
    "country": "Бразилия",
    "region": "Sao Paulo",
    "city": "Tupa",
    "lat": -21.9340017,
    "lng": -50.5195856
  },
  {
    "country_en": "Brazil",
    "region_en": "Santa Catarina",
    "city_en": "Tubarao",
    "country": "Бразилия",
    "region": "Santa Catarina",
    "city": "Tubarao",
    "lat": -28.4718138,
    "lng": -49.0148571
  },
  {
    "country_en": "Brazil",
    "region_en": "Goias",
    "city_en": "Trindade",
    "country": "Бразилия",
    "region": "Goias",
    "city": "Trindade",
    "lat": -16.6521596,
    "lng": -49.4931169
  },
  {
    "country_en": "Brazil",
    "region_en": "Rio de Janeiro",
    "city_en": "Tres Rios",
    "country": "Бразилия",
    "region": "Rio de Janeiro",
    "city": "Tres Rios",
    "lat": -22.1170043,
    "lng": -43.2189459
  },
  {
    "country_en": "Brazil",
    "region_en": "Mato Grosso do Sul",
    "city_en": "Tres Lagoas",
    "country": "Бразилия",
    "region": "Mato Grosso do Sul",
    "city": "Tres Lagoas",
    "lat": -20.7881689,
    "lng": -51.7030483
  },
  {
    "country_en": "Brazil",
    "region_en": "Minas Gerais",
    "city_en": "Tres Coracoes",
    "country": "Бразилия",
    "region": "Minas Gerais",
    "city": "Tres Coracoes",
    "lat": -21.692578,
    "lng": -45.2515461
  },
  {
    "country_en": "Brazil",
    "region_en": "Parana",
    "city_en": "Toledo",
    "country": "Бразилия",
    "region": "Parana",
    "city": "Toledo",
    "lat": -24.7251154,
    "lng": -53.7416844
  },
  {
    "country_en": "Brazil",
    "region_en": "Minas Gerais",
    "city_en": "Timoteo",
    "country": "Бразилия",
    "region": "Minas Gerais",
    "city": "Timoteo",
    "lat": -19.5815683,
    "lng": -42.6475311
  },
  {
    "country_en": "Brazil",
    "region_en": "Rio de Janeiro",
    "city_en": "Teresopolis",
    "country": "Бразилия",
    "region": "Rio de Janeiro",
    "city": "Teresopolis",
    "lat": -22.4169605,
    "lng": -42.9756016
  },
  {
    "country_en": "Brazil",
    "region_en": "Minas Gerais",
    "city_en": "Teofilo Otoni",
    "country": "Бразилия",
    "region": "Minas Gerais",
    "city": "Teofilo Otoni",
    "lat": -17.8600089,
    "lng": -41.5091042
  },
  {
    "country_en": "Brazil",
    "region_en": "Parana",
    "city_en": "Telemaco Borba",
    "country": "Бразилия",
    "region": "Parana",
    "city": "Telemaco Borba",
    "lat": -24.3250032,
    "lng": -50.6180669
  },
  {
    "country_en": "Brazil",
    "region_en": "Sao Paulo",
    "city_en": "Taubate",
    "country": "Бразилия",
    "region": "Sao Paulo",
    "city": "Taubate",
    "lat": -23.0204559,
    "lng": -45.5563555
  },
  {
    "country_en": "Brazil",
    "region_en": "Sao Paulo",
    "city_en": "Tatui",
    "country": "Бразилия",
    "region": "Sao Paulo",
    "city": "Tatui",
    "lat": -23.3492186,
    "lng": -47.8465761
  },
  {
    "country_en": "Brazil",
    "region_en": "Sao Paulo",
    "city_en": "Taquaritinga",
    "country": "Бразилия",
    "region": "Sao Paulo",
    "city": "Taquaritinga",
    "lat": -21.4069762,
    "lng": -48.5052392
  },
  {
    "country_en": "Brazil",
    "region_en": "Sao Paulo",
    "city_en": "Taboao da Serra",
    "country": "Бразилия",
    "region": "Sao Paulo",
    "city": "Taboao da Serra",
    "lat": -23.6228759,
    "lng": -46.7816647
  },
  {
    "country_en": "Brazil",
    "region_en": "Sao Paulo",
    "city_en": "Suzano",
    "country": "Бразилия",
    "region": "Sao Paulo",
    "city": "Suzano",
    "lat": -23.5453209,
    "lng": -46.311625
  },
  {
    "country_en": "Brazil",
    "region_en": "Sao Paulo",
    "city_en": "Sumare",
    "country": "Бразилия",
    "region": "Sao Paulo",
    "city": "Sumare",
    "lat": -22.8209029,
    "lng": -47.2732726
  },
  {
    "country_en": "Brazil",
    "region_en": "Sao Paulo",
    "city_en": "Sorocaba",
    "country": "Бразилия",
    "region": "Сан-Паулу",
    "city": "Сорокаба",
    "lat": -23.5015299,
    "lng": -47.4525603
  },
  {
    "country_en": "Brazil",
    "region_en": "Minas Gerais",
    "city_en": "Sete Lagoas",
    "country": "Бразилия",
    "region": "Minas Gerais",
    "city": "Sete Lagoas",
    "lat": -19.45738,
    "lng": -44.2416695
  },
  {
    "country_en": "Brazil",
    "region_en": "Sao Paulo",
    "city_en": "Sertaozinho",
    "country": "Бразилия",
    "region": "Sao Paulo",
    "city": "Sertaozinho",
    "lat": -21.1494605,
    "lng": -47.9923651
  },
  {
    "country_en": "Brazil",
    "region_en": "Espirito Santo",
    "city_en": "Serra",
    "country": "Бразилия",
    "region": "Espirito Santo",
    "city": "Serra",
    "lat": -20.1215224,
    "lng": -40.3077898
  },
  {
    "country_en": "Brazil",
    "region_en": "Rio de Janeiro",
    "city_en": "Seropedica",
    "country": "Бразилия",
    "region": "Rio de Janeiro",
    "city": "Seropedica",
    "lat": -22.7530802,
    "lng": -43.7159011
  },
  {
    "country_en": "Brazil",
    "region_en": "Goias",
    "city_en": "Senador Canedo",
    "country": "Бразилия",
    "region": "Goias",
    "city": "Senador Canedo",
    "lat": -16.7088537,
    "lng": -49.091845
  },
  {
    "country_en": "Brazil",
    "region_en": "Parana",
    "city_en": "Sarandi",
    "country": "Бразилия",
    "region": "Parana",
    "city": "Sarandi",
    "lat": -23.4445928,
    "lng": -51.8765044
  },
  {
    "country_en": "Brazil",
    "region_en": "Rio de Janeiro",
    "city_en": "Saquarema",
    "country": "Бразилия",
    "region": "Рио-де-Жанейро",
    "city": "Сакуарема",
    "lat": -22.9323976,
    "lng": -42.4866758
  },
  {
    "country_en": "Brazil",
    "region_en": "Rio Grande do Sul",
    "city_en": "Sapucaia",
    "country": "Бразилия",
    "region": "Rio Grande do Sul",
    "city": "Sapucaia",
    "lat": -29.83333,
    "lng": -51.15
  },
  {
    "country_en": "Brazil",
    "region_en": "Rio Grande do Sul",
    "city_en": "Sapiranga",
    "country": "Бразилия",
    "region": "Rio Grande do Sul",
    "city": "Sapiranga",
    "lat": -29.6353852,
    "lng": -51.0069543
  },
  {
    "country_en": "Brazil",
    "region_en": "Sao Paulo",
    "city_en": "Sao Vicente",
    "country": "Бразилия",
    "region": "Sao Paulo",
    "city": "Sao Vicente",
    "lat": -23.9607656,
    "lng": -46.3960797
  },
  {
    "country_en": "Brazil",
    "region_en": "Minas Gerais",
    "city_en": "Sao Sebastiao do Paraiso",
    "country": "Бразилия",
    "region": "Minas Gerais",
    "city": "Sao Sebastiao do Paraiso",
    "lat": -20.9172128,
    "lng": -46.9841443
  },
  {
    "country_en": "Brazil",
    "region_en": "Sao Paulo",
    "city_en": "Sao Sebastiao",
    "country": "Бразилия",
    "region": "Sao Paulo",
    "city": "Sao Sebastiao",
    "lat": -23.8063468,
    "lng": -45.4016534
  },
  {
    "country_en": "Brazil",
    "region_en": "Sao Paulo",
    "city_en": "Sao Roque",
    "country": "Бразилия",
    "region": "Sao Paulo",
    "city": "Sao Roque",
    "lat": -23.5307554,
    "lng": -47.1353998
  },
  {
    "country_en": "Brazil",
    "region_en": "Rio de Janeiro",
    "city_en": "Sao Pedro da Aldeia",
    "country": "Бразилия",
    "region": "Rio de Janeiro",
    "city": "Sao Pedro da Aldeia",
    "lat": -22.8433599,
    "lng": -42.1030012
  },
  {
    "country_en": "Brazil",
    "region_en": "Sao Paulo",
    "city_en": "Sao Paulo",
    "country": "Бразилия",
    "region": "Сан-Паулу",
    "city": "Сан-Паулу",
    "lat": -23.5505199,
    "lng": -46.6333094
  },
  {
    "country_en": "Brazil",
    "region_en": "Espirito Santo",
    "city_en": "Sao Mateus",
    "country": "Бразилия",
    "region": "Espirito Santo",
    "city": "Sao Mateus",
    "lat": -18.7191438,
    "lng": -39.8567437
  },
  {
    "country_en": "Brazil",
    "region_en": "Rio Grande do Sul",
    "city_en": "Sao Leopoldo",
    "country": "Бразилия",
    "region": "Rio Grande do Sul",
    "city": "Sao Leopoldo",
    "lat": -29.7549941,
    "lng": -51.150283
  },
  {
    "country_en": "Brazil",
    "region_en": "Parana",
    "city_en": "Sao Jose dos Pinhais",
    "country": "Бразилия",
    "region": "Parana",
    "city": "Sao Jose dos Pinhais",
    "lat": -25.5318354,
    "lng": -49.2035722
  },
  {
    "country_en": "Brazil",
    "region_en": "Sao Paulo",
    "city_en": "Sao Jose dos Campos",
    "country": "Бразилия",
    "region": "Сан-Паулу",
    "city": "Сан-Жосе-дус-Кампус",
    "lat": -23.223701,
    "lng": -45.9009074
  },
  {
    "country_en": "Brazil",
    "region_en": "Sao Paulo",
    "city_en": "Sao Jose do Rio Preto",
    "country": "Бразилия",
    "region": "State of Sao Paulo",
    "city": "Sao Jose do Rio Preto",
    "lat": -20.811761,
    "lng": -49.3762272
  },
  {
    "country_en": "Brazil",
    "region_en": "Santa Catarina",
    "city_en": "Sao Jose",
    "country": "Бразилия",
    "region": "Santa Catarina",
    "city": "Sao Jose",
    "lat": -27.6140791,
    "lng": -48.6370861
  },